BRAND;ADDRESS;RATING;UAB;UABWEEK;UABMON;UABTUE;UABWED;UABTHU;UABFRI;UABSAT;UABSUN;PARKLOT;OPENTIME;OPEN6AM;OPEN7AM;OPEN8AM;OPENAFTER8;REVIEWS;AVGTIME;WORK_24HRS;SUNDAYS;WORSTREVIEWS;lat;long;DISTCENT;Open_hour_Mo;Open_hour_Di;Open_hour_Mi;Open_hour_Do;Open_hour_Fr;Open_hour_Sa;Open_hour_So;COMCENTER;NUM_COMMENTS;NEG_COMMENTPRICE;NEG_COMMENTFOOD;NEGPOS_RATIO;POSNEG_RATIO;NEG_REVIEWS;POS_REVIEWS;perc_BH
REWE Markt;Yorckstraﬂe 78, 10965 Berlin;3.8;12;3;0;0;0;0;3;9;0;0;1;1;0;0;0;652;15;0;0;61;52.4931195;13.3829936;2.60245837;18;18;18;14;18;17.5;0;0;24;12;1;0.215419501;4.642105263;95;441;0.12
REWE Markt;Am Ostbahnhof 9, 10243 Berlin;4.1;5;0;0;0;0;0;0;0;5;1;1;1;0;0;0;2179;20;0;1;126;52.5096044;13.4352014;3.965427239;18;18;18;20;18;18;18;1;58;3;0;0.127051672;7.870813397;209;1645;0.04
EDEKA Friedrichstraﬂe;Friedrichstraﬂe 246, 10969 Berlin;3.3;22;16;6;5;5;0;0;6;0;1;2;0;1;0;0;545;15;0;0;70;52.5007211;13.3913148;1.96172166;15;15;15;14;15;15;0;0;67;57;8;0.594594595;1.681818182;154;259;0.25
EDEKA Thaut;Jessnerstraﬂe 47-55, 10247 Berlin;3.9;19;10;0;4;1;3;2;9;0;0;2;0;1;0;0;424;20;0;0;50;52.509941;13.4707456;6.342585035;15;15;15;14;15;15;0;0;10;3;1;0.227722772;4.391304348;69;303;0.21
EDEKA Berlin Yorckstraﬂe;Yorckstraﬂe 14, 10965 Berlin;3.8;15;8;0;3;3;2;0;7;0;0;2;0;1;0;0;245;15;0;0;22;52.4939562;13.3840409;2.521348161;15;15;15;14;15;15;0;0;21;18;2;0.232704403;4.297297297;37;159;0.17
Nah und Gut Geyik;Gneisenaustraﬂe 84, 10961 Berlin;4.2;3;1;1;0;0;0;0;2;0;0;2;0;1;0;0;116;10;0;0;7;52.4915899;13.396834;3.038328882;14;14;14;14;14;13;0;0;4;0;0;0.181818182;5.5;16;88;0.04
EDEKA Schnelle;Andreasstraﬂe 59, 10243 Berlin;3.8;45;37;4;9;9;9;6;8;0;1;2;0;1;0;0;1204;15;0;0;117;52.5148704;13.4313149;3.635127772;14;14;14;14;14;14;0;0;49;39;9;0.225885226;4.427027027;185;819;0.54
PENNY;Am Ostbahnhof 9, 10243 Berlin;4;4;0;0;0;0;0;0;0;4;1;2;0;1;0;0;595;20;0;1;56;52.5098947;13.4342925;3.898929615;16;16;16;14;16;16;16;1;35;5;1;0.173913043;5.75;76;437;0.04
Netto - G¸nstig. Besser. F¸r dich.;Koppenstraﬂe 93, 10243 Berlin;3.8;32;27;1;8;7;4;7;5;0;0;3;0;0;1;0;368;15;0;0;34;52.512251;13.4331679;3.784010799;13;13;13;14;13;13;0;0;32;24;3;0.251046025;3.983333333;60;239;0.41
ALDI Nord;Revaler Str. 33, 10245 Berlin;3.8;16;14;0;7;5;0;2;2;0;1;3;0;0;1;0;410;20;0;0;29;52.5056683;13.4600184;5.70043168;13;13;13;13;13;13;0;0;18;15;0;0.225296443;4.438596491;57;253;0.21
REWE Markt;Tamara-Danz-Straﬂe 11, 10243 Berlin;4.3;4;0;0;0;0;0;0;4;0;1;2;0;1;0;0;1316;10;0;0;70;52.5059918;13.4476878;4.877620397;16;16;16;14;16;16;0;1;36;1;0;0.099000908;10.10091743;109;1101;0.04
Eurogida Kreuzberg;Wrangelstraﬂe 85, 10997 Berlin;4.1;4;0;0;0;0;0;0;4;0;1;3;0;0;1;0;641;15;0;0;32;52.49898;13.4413357;4.721724248;12;12;12;12;12;12;0;0;20;2;0;0.104330709;9.58490566;53;508;0.06
ALDI Berlin-Friedrichshain;R¸dersdorfer Str. 65, 10243 Berlin;4.2;25;19;3;5;6;3;2;6;0;1;2;0;1;0;0;536;20;0;0;20;52.5111187;13.4453941;4.621510483;14;14;14;14;14;14;0;0;7;0;0;0.075;13.33333333;33;440;0.3
EDEKA Rigaer Straﬂe;Rigaer Str. 44, 10247 Berlin;3.6;24;14;2;3;4;2;3;10;0;0;2;0;1;0;0;404;15;0;0;59;52.5157387;13.4682726;6.135618649;16;16;16;14;16;16;0;0;52;44;6;0.338582677;2.953488372;86;254;0.26
Eurogida;Wilmersdorfer Str. 46-54, 10627 Berlin;4.2;8;0;0;0;0;0;0;8;0;1;3;0;0;1;0;697;10;0;0;35;52.5087879;13.304297;5.042511715;13;13;13;13;13;13;0;1;30;2;0;0.09948542;10.05172414;58;583;0.1
Netto Marken-Discount;Bergmannstraﬂe 5, 10961 Berlin;3.7;8;8;3;0;2;3;0;0;0;0;2;0;1;0;0;406;10;0;0;33;52.4896483;13.3888988;3.059602795;15;15;15;15;15;15;0;0;12;10;1;0.237704918;4.206896552;58;244;0.09
Lidl;Warschauer Pl. 14, 10245 Berlin;4;22;15;3;3;5;2;2;7;0;0;2;0;1;0;0;1030;20;0;0;43;52.5049714;13.4501783;5.068847135;14;14;14;14;14;14;0;0;30;4;0;0.109974425;9.093023256;86;782;0.26
EDEKA Reske;Frankfurter Allee 35-37, 10247 Berlin;4.1;8;5;1;2;2;0;0;3;0;0;3;0;0;1;0;313;20;0;0;25;52.5155164;13.462003;5.711249716;13;13;13;14;13;13;0;1;24;2;1;0.140495868;7.117647059;34;242;0.1
Netto City;Kochhannstraﬂe 40, 10249 Berlin;3.9;11;8;2;3;2;1;0;3;0;0;2;0;1;0;0;247;15;0;0;14;52.5239706;13.4468634;4.762265889;14;14;14;14;14;14;0;0;13;4;0;0.145251397;6.884615385;26;179;0.13
ALDI Nord;Tamara-Danz-Straﬂe 11, 10243 Berlin;4.1;6;0;0;0;0;0;0;6;0;1;4;0;0;0;1;242;10;0;0;10;52.5063461;13.4458964;4.750378921;12;12;12;12;12;12;0;1;1;0;0;0.122994652;8.130434783;23;187;0.08
Lidl;Markgrafendamm 25C, 10245 Berlin;4.4;11;3;0;2;1;0;0;8;0;1;2;0;1;0;0;195;20;0;0;9;52.5003691;13.4653328;6.19561976;15;15;15;14;15;15;0;0;6;0;0;0.095808383;10.4375;16;167;0.12
Zora Supermarkt 2;Boxhagener Str. 80, 10245 Berlin;4.3;2;0;0;0;0;0;0;2;0;0;4;0;0;0;1;51;15;0;0;5;52.507969;13.4675769;6.158543105;12;12;12;12;12;13;0;0;5;0;0;0.119047619;8.4;5;42;0.03
Lidl;Eldenaer Str. 34A, 10247 Berlin;4.2;6;0;0;0;0;0;0;6;0;1;2;0;1;0;0;810;20;0;0;36;52.5208671;13.4676963;6.117328552;14;14;14;14;14;14;0;0;26;2;0;0.082458771;12.12727273;55;667;0.07
REWE Markt;Landsberger Allee 68, 10249 Berlin;3.9;26;16;0;4;6;2;4;10;0;0;2;0;1;0;0;1071;15;0;0;94;52.5258166;13.4469541;4.809382824;17;17;17;14;17;16.5;0;0;32;11;2;0.189189189;5.285714286;147;777;0.26
PENNY;Boxhagener Str. 80, 10245 Berlin;4;3;0;0;0;0;0;0;3;0;1;2;0;1;0;0;427;15;0;0;28;52.507941;13.4675994;6.160520708;16;16;16;14;16;16;0;0;2;0;0;0.134556575;7.431818182;44;327;0.03
City Sp‰tkauf - Late night supermarket Tobacco Spirits;Boxhagener Str. 13, 10245 Berlin;3.9;0;0;0;0;0;0;0;0;0;0;0;0;0;0;0;14;0;1;0;3;52.5138626;13.4541736;5.187295765;18.5;16;0;14;0;0;0;0;3;2;0;0.3;3.333333333;3;10;0
EDEKA Kelz;Str. der Pariser Kommune 38, 10243 Berlin;3.6;26;22;3;5;6;4;4;4;0;0;3;0;0;1;0;560;15;0;0;71;52.5161799;13.4407546;4.271186514;12;12;12;14;12;12;0;0;30;25;5;0.351906158;2.841666667;120;341;0.35
Lidl;Stresemannstraﬂe 68-78, 10963 Berlin;3.9;3;0;0;0;0;0;0;3;0;1;2;0;1;0;0;1424;20;0;0;81;52.5037698;13.3839327;1.454631686;15;15;15;14;15;15;0;0;71;32;2;0.156435644;6.392405063;158;1010;0.03
ALDI Nord;Weinstraﬂe 9, 10249 Berlin;4.1;12;5;2;0;3;0;0;7;0;1;2;0;1;0;0;504;20;0;0;25;52.5264351;13.4267506;3.509376884;14;14;14;14;14;14;0;0;18;1;0;0.107142857;9.333333333;42;392;0.14
REWE Markt;Auerstraﬂe 12, 10249 Berlin;4.6;13;9;4;0;0;5;0;4;0;1;4;0;0;0;1;16;15;0;0;0;52.5189216;13.444071;4.505335987;12;12;12;12;12;12;0;0;0;0;0;0;0;0;14;0.18
Netto City;Landsberger Allee 62 b, 10249 Berlin;3.9;10;8;0;3;4;1;0;2;0;0;2;0;1;0;0;317;15;0;0;9;52.5252447;13.4447886;4.652388945;15;15;15;15;15;15;0;0;5;2;0;0.142180095;7.033333333;30;211;0.11
EDEKA Iden;Hauptstraﬂe 16, 10827 Berlin;4.4;20;15;0;6;0;5;4;5;0;0;3;0;0;1;0;962;20;0;0;34;52.487345;13.3571158;3.509682355;12;12;12;12;12;12;0;0;22;1;0;0.058394161;17.125;48;822;0.28
Lidl;Rigaer Str. 36-38, 10247 Berlin;4.2;15;6;2;3;1;0;0;9;0;0;2;0;1;0;0;417;20;0;0;26;52.5161325;13.4659747;5.979657352;15;15;15;14;15;15;0;0;21;2;1;0.093093093;10.74193548;31;333;0.17
EDEKA Siebert;Hasenheide 57, 10967 Berlin;4;22;16;2;7;4;3;0;6;0;0;2;0;1;0;0;513;20;0;0;30;52.489202;13.409136;3.690428621;15;15;15;14;15;15;0;0;3;1;0;0.146981627;6.803571429;56;381;0.25
Lidl;Boxhagener Str. 76, 10245 Berlin;3.8;4;1;0;1;0;0;0;3;0;1;2;0;1;0;0;130;20;0;0;22;52.5074707;13.4681144;6.203103993;15;15;15;14;15;15;0;0;2;2;0;0.296703297;3.37037037;27;91;0.05
Netto Marken-Discount;Frankfurter Allee 57-59, 10247 Berlin;3.7;19;12;4;3;0;5;0;7;0;0;2;0;1;0;0;636;15;0;0;72;52.5148514;13.4659816;5.982290318;15;15;15;15;15;15;0;0;67;54;11;0.281795511;3.548672566;113;401;0.21
EDEKA Meissner;Nollendorfpl. 8-9, 10777 Berlin;4.1;21;10;0;5;4;1;0;11;0;1;0;0;0;0;0;1992;20;1;0;123;52.4988828;13.3545909;2.490163745;17;12;11.5;14;17;23.5;0;1;36;3;1;0.138724523;7.208530806;211;1521;0.22
EDEKA Riebe;Platz d. Vereinten Nationen 14, 10249 Berlin;3.9;16;10;1;4;1;0;4;6;0;1;2;0;1;0;0;564;15;0;0;45;52.522619;13.428417;3.506989589;14;14;14;14;14;14;0;0;43;19;2;0.199029126;5.024390244;82;412;0.19
EDEKA Schnelle;Alt-Stralau 66, 10245 Berlin;4.2;14;11;2;3;2;4;0;3;0;1;2;0;1;0;0;227;15;0;0;19;52.4966349;13.466661;6.411735212;14;14;14;14;14;14;0;0;14;1;0;0.175141243;5.709677419;31;177;0.17
Kaufland Berlin H.-Blankenstein-Str;Hermann-Blankenstein-Straﬂe 38, 10249 Berlin;4.2;8;1;0;0;0;0;1;7;0;1;2;0;1;0;0;3021;32.5;0;0;99;52.5237103;13.4618076;5.756670835;17;17;17;14;17;16.5;0;0;2;0;0;0.078367347;12.76041667;192;2450;0.08
EDEKA Barnimstraﬂe;Barnimstraﬂe 18, 10249 Berlin;3.9;31;23;3;9;4;6;1;8;0;1;2;0;1;0;0;377;15;0;0;26;52.5261786;13.4229189;3.254986783;15;15;15;14;15;15;0;0;6;2;1;0.203007519;4.925925926;54;266;0.35
REWE Markt;Eldenaer Str. 42, 10247 Berlin;3.9;11;3;3;0;0;0;0;8;0;1;2;0;1;0;0;1290;10;0;0;98;52.5203955;13.4626136;5.769930769;16;16;16;14;16;16;0;0;27;10;3;0.173036093;5.779141104;163;942;0.12
Alnatura Super Natur Markt;Koppenstraﬂe 8, 10243 Berlin;4.5;4;4;0;2;1;1;0;0;0;0;3;0;0;1;0;59;15;0;0;2;52.5125665;13.4340994;3.842733593;13;13;13;13;13;13;0;0;1;0;0;0.057692308;17.33333333;3;52;0.05
EDEKA Schnelle;Eckertstraﬂe 11, 10249 Berlin;3.9;19;11;4;4;1;0;2;8;0;1;2;0;1;0;0;875;15;0;0;86;52.5197404;13.45042;4.940810112;14;14;14;14;14;14;0;0;52;24;2;0.1828125;5.47008547;117;640;0.23
Lidl;Knesebeckstraﬂe 47/48, 10719 Berlin;4.1;12;3;0;0;3;0;0;9;0;1;2;0;1;0;0;1003;20;0;0;56;52.500456;13.321152;4.216916436;14.5;14.5;14.5;14;14.5;14.5;0;0;2;0;0;0.121447028;8.234042553;94;774;0.14
Alnatura Super Natur Markt;Schleiermacherstraﬂe 25 Ecke, Bergmannstraﬂe, 10961 Berlin;4.2;0;0;0;0;0;0;0;0;0;1;3;0;0;1;0;304;10;0;0;16;52.4891762;13.397773;3.308993579;13;13;13;13;13;13;0;1;9;1;0;0.093385214;10.70833333;24;257;0
EDEKA Brehm;Kottbusser Damm 5, 10967 Berlin;4;8;2;0;1;0;0;1;6;0;1;3;0;0;1;0;294;15;0;0;20;52.4945122;13.420776;3.792988664;12;12;12;14;12;12;0;0;8;1;0;0.158878505;6.294117647;34;214;0.11
EDEKA Bergmannstraﬂe;Bergmannstraﬂe 5-7, 10961 Berlin;3.8;7;0;0;0;0;0;0;7;0;0;2;0;1;0;0;836;20;0;0;81;52.4897231;13.3885721;3.046108787;17;17;17;14;17;16.5;0;0;72;41;20;0.237924866;4.203007519;133;559;0.07
EDEKA Berliner Straﬂe;Berliner Straﬂe 24-25, 10715 Berlin;4.2;10;1;0;0;0;1;0;9;0;1;0;0;0;0;0;2460;20;1;0;113;52.486669;13.3256836;4.825813494;17;12;0;14;0;23;0;0;89;5;0;0.083292262;12.00591716;169;2029;0.15
Kaufland;Schˆneberger Str. 7, 12103 Berlin;4.1;9;0;0;0;0;0;0;9;0;1;2;0;1;0;0;3376;32.5;0;0;155;52.4680606;13.3766468;5.367680766;15;15;15;14;15;15;0;0;132;9;3;0.100598355;9.940520446;269;2674;0.1
BIO COMPANY Voigtstraﬂe;Voigtstraﬂe 38, 10247 Berlin;3.7;14;10;2;3;2;1;2;4;0;0;3;0;0;1;0;77;15;0;0;15;52.5161499;13.4680258;6.118596605;13;13;13;14;13;13;0;0;11;10;1;0.339622642;2.944444444;18;53;0.18
BIO COMPANY Skalitzer Straﬂe am Schlesischen Tor;Skalitzer Straﬂe 71-72 am, Schlesisches Tor, 10997 Berlin;4.3;7;7;1;2;2;2;0;0;0;0;3;0;0;1;0;92;15;0;0;4;52.5004134;13.4406464;4.615690776;13;13;13;14;13;13;0;0;3;0;0;0.060240964;16.6;5;83;0.09
Alnatura Super Natur Markt;Wilmersdorfer Arcaden, Wilmersdorfer Str. 46, 10627 Berlin;4.3;5;0;0;0;0;0;0;5;0;1;3;0;0;1;0;214;10;0;0;12;52.5086834;13.3047414;5.014774281;13;13;13;13;13;13;0;1;10;0;0;0.092896175;10.76470588;17;183;0.06
Denns BioMarkt;Boxhagener Str. 103, 10245 Berlin;3.6;6;1;0;1;0;0;0;5;0;0;3;0;0;1;0;48;15;0;0;10;52.5125894;13.4598559;5.580463224;13;13;13;14;13;13;0;0;8;6;2;0.433333333;2.307692308;13;30;0.08
Eurogida Badstraﬂe;Badstraﬂe 9, 13357 Berlin;4.1;7;0;0;0;0;0;0;7;0;0;3;0;0;1;0;2144;20;0;0;138;52.5501558;13.3859707;3.812909305;12;12;12;12;12;12;0;0;21;2;0;0.128838049;7.761682243;214;1661;0.1
Eurogida Moabit;Turmstraﬂe 43, 10551 Berlin;4.1;3;0;0;0;0;0;0;3;0;0;3;0;0;1;0;721;20;0;0;43;52.527054;13.3347751;3.145581241;12;12;12;12;12;12;0;0;11;1;0;0.124777184;8.014285714;70;561;0.04
Kaufland Berlin-Lichtenberg;Frankfurter Allee 113-117, 10365 Berlin;3.8;5;0;0;0;0;0;0;5;0;1;2;0;1;0;0;187;10;0;0;26;52.5141604;13.4763416;6.686205988;15;15;15;14;15;15;0;1;19;15;3;0.317460317;3.15;40;126;0.06
Denns BioMarkt;Boxhagener Str. 82 82 A, 10245 Berlin;2.8;7;2;0;1;0;1;0;5;0;0;3;0;0;1;0;46;15;0;0;17;52.5086226;13.4665077;6.076266476;13;13;13;14;13;13;0;0;12;11;1;1.2;0.833333333;24;20;0.09
Bazarche Hafez Berlin;Alt-Moabit 45, 10555 Berlin;4.6;3;0;0;0;0;0;0;3;0;0;4;0;0;0;1;180;15;0;0;4;52.5242707;13.3317532;3.2372782;10;10;10;10;10;10;0;0;3;0;0;0.048192771;20.75;8;166;0.05
ALDI;Frankfurter Allee 144, 10365 Berlin;3.9;7;6;0;2;3;1;0;1;0;1;2;0;1;0;0;42;20;0;0;2;52.5118152;13.4812808;7.034388285;14;14;14;14;14;14;0;0;1;0;0;0.166666667;6;5;30;0.08
Eurogida Schˆneberg;Potsdamer Str. 152, 10783 Berlin;4.2;5;0;0;0;0;0;0;5;0;0;3;0;0;1;0;577;20;0;0;33;52.4966862;13.3611126;2.453338972;12;12;12;12;12;12;0;0;13;1;0;0.107692308;9.285714286;49;455;0.07
Eurogida Steglitz;Albrechtstr. 19, 12167 Berlin;3.9;7;0;0;0;0;0;0;7;0;0;3;0;0;1;0;1421;15;0;0;132;52.4544444;13.3272223;7.686741868;12;12;12;12;12;12;0;0;42;11;1;0.193641618;5.164179104;201;1038;0.1
Denns BioMarkt;Warschauer Str. 63, 10243 Berlin;2.4;9;4;0;2;1;1;0;5;0;0;4;0;0;0;1;56;15;0;0;25;52.5101929;13.4519826;5.077466833;12;12;12;14;12;12;0;0;16;13;2;1.882352941;0.53125;32;17;0.12
Denns BioMarkt;M¸hsamstraﬂe 54, 10249 Berlin;3.2;2;2;0;2;0;0;0;0;0;0;3;0;0;1;0;56;15;0;0;12;52.5201813;13.4513574;5.008115255;13;13;13;14;13;13;0;0;6;6;0;0.655172414;1.526315789;19;29;0.03
ALDI Nord;Kreuzbergstraﬂe 39, 10965 Berlin;4.1;7;0;0;0;0;0;0;7;0;1;2;0;1;0;0;702;25;0;0;43;52.4904239;13.374999;2.883562851;14;14;14;14;14;14;0;0;6;0;0;0.123636364;8.088235294;68;550;0.08
Euro Gida Markt Kreuzberg;Naunynstraﬂe 10-11, 10997 Berlin;4.1;7;2;0;0;0;0;2;5;0;0;2;0;1;0;0;54;10;0;0;2;52.5013033;13.4240383;3.554287266;13;13;13;13;13;13;0;0;1;0;0;0.184210526;5.428571429;7;38;0.09
REWE Markt;Skalitzer Str. 134, 10999 Berlin;3.6;6;0;0;0;0;0;0;6;0;0;2;0;1;0;0;1058;20;0;0;120;52.4993725;13.4187919;3.360131203;17;17;17;14;17;16.5;0;0;80;71;7;0.345963756;2.89047619;210;607;0.06
EDEKA Burau;Mainzer Str. 13, 10715 Berlin;4;5;5;0;3;1;1;0;0;0;1;3;0;0;1;0;359;15;0;0;22;52.47972;13.3267825;5.335556226;11;11;11;14;11;10;0;0;2;0;0;0.15648855;6.390243902;41;262;0.07
Lidl;Oranienpl. 4, 10999 Berlin;4;12;5;0;0;3;2;0;7;0;1;2;0;1;0;0;625;20;0;0;42;52.5020637;13.4143547;2.944306607;14;14;14;14;14;14;0;0;40;6;2;0.153846154;6.5;70;455;0.14
EDEKA Hilbrecht;Ritterstraﬂe 38-40, 10969 Berlin;3.7;16;8;0;5;3;0;0;8;0;1;2;0;1;0;0;564;15;0;0;49;52.5036095;13.40352;2.246583648;15;15;15;14;15;15;0;0;7;6;1;0.270893372;3.691489362;94;347;0.18
REWE Markt;Wrangelstraﬂe 53, 10997 Berlin;3.7;4;1;0;0;0;0;1;3;0;0;2;0;1;0;0;454;15;0;0;39;52.4984563;13.4419335;4.782643704;17;17;17;14;17;16.5;0;0;21;19;2;0.276816609;3.6125;80;289;0.04
EDEKA Gerstmann;EDEKA, Stresemannstraﬂe, 10963 Berlin;4.2;17;14;1;4;5;3;1;3;0;1;2;0;1;0;0;12;15;0;0;1;52.5021225;13.3858196;1.668646228;17;17;17;19;17;16.5;0;0;1;0;0;0.2;5;2;10;0.16
PENNY;Reichenberger Str. 57, 10999 Berlin;4.2;0;0;0;0;0;0;0;0;0;1;2;0;1;0;0;413;20;0;0;17;52.4951263;13.428512;4.170666353;15;15;15;14;15;15;0;0;4;0;0;0.101190476;9.882352941;34;336;0
Lidl;Charlottenstraﬂe 2, 10969 Berlin;4.1;16;10;0;5;4;1;0;6;0;1;2;0;1;0;0;1204;20;0;0;55;52.5054029;13.3931328;1.599197897;14;14;14;14;14;14;0;0;15;1;0;0.110867179;9.01980198;101;911;0.19
Netto Marken-Discount;Kottbusser Damm 1, 10967 Berlin;3.8;12;5;0;3;0;0;2;7;0;0;2;0;1;0;0;281;15;0;0;17;52.4954324;13.4199691;3.68573057;17;17;17;19;17;17;0;0;2;1;0;0.233532934;4.282051282;39;167;0.12
EDEKA Schrader;Barbarossastraﬂe 69, 10781 Berlin;4;18;10;2;4;0;4;0;8;0;1;2;0;1;0;0;525;15;0;0;35;52.4918816;13.3543183;3.144007961;15;15;15;14;15;15;0;0;23;2;1;0.158441558;6.31147541;61;385;0.2
EDEKA Stadie;Prager Pl. 1-3, 10779 Berlin;4.3;5;0;0;0;0;0;0;5;0;1;1;1;0;0;0;391;10;0;0;17;52.4934177;13.3323511;3.989759847;15.5;15.5;15.5;14;15.5;15.5;0;0;1;0;0;0.099697885;10.03030303;33;331;0.06
PENNY;Kottbusser Damm 66, 10967 Berlin;3.8;7;0;0;0;0;0;0;7;0;1;2;0;1;0;0;429;15;0;0;31;52.4888937;13.4250453;4.425148884;15;15;15;14;15;15;0;0;11;9;1;0.249027237;4.015625;64;257;0.08
REWE City;Friedrichstraﬂe 67-70, 10117 Berlin;4.2;2;2;0;2;0;0;0;0;0;1;3;0;0;1;0;881;10;0;0;31;52.5129415;13.3906186;0.950337197;14;14;14;14;14;14;0;1;24;2;1;0.080168776;12.47368421;57;711;0.02
BIO COMPANY Friesenstraﬂe;Friesenstraﬂe 1, 10965 Berlin;4.1;11;7;0;2;1;2;2;4;0;1;3;0;0;1;0;55;15;0;0;4;52.4888976;13.3942242;3.246734741;13;13;13;14;13;13;0;0;0;0;0;0.119047619;8.4;5;42;0.14
Hao Cai Lei Asian Supermarket;Karl-Marx-Straﬂe 15, 12043 Berlin;4.4;6;1;0;0;1;0;0;5;0;0;4;0;0;0;1;310;15;0;0;8;52.4853967;13.4269979;4.793113463;9.5;9.5;9.5;9.5;9.5;9.5;0;0;5;0;0;0.04797048;20.84615385;13;271;0.11
EDEKA Reichelt;Levetzowstraﬂe 10-10a, 10555 Berlin;3.5;15;8;0;3;2;1;2;7;0;1;2;0;1;0;0;766;20;0;0;141;52.5208926;13.3343128;2.983858142;14;14;14;14;14;14;0;0;67;51;12;0.403326403;2.479381443;194;481;0.18
Aldi Nord;Hasenheide 108, 10967 Berlin;3.9;10;2;0;2;0;0;0;8;0;1;2;0;1;0;0;377;25;0;0;21;52.4858919;13.4214597;4.497935419;14;14;14;14;14;14;0;1;21;11;1;0.13229572;7.558823529;34;257;0.12
BIO COMPANY Yorckstraﬂe;Yorckstraﬂe 37, 10965 Berlin;4;6;0;0;0;0;0;0;6;0;1;3;0;0;1;0;189;15;0;0;23;52.4929065;13.371571;2.634354417;13;13;13;14;13;13;0;0;13;1;0;0.227586207;4.393939394;33;145;0.08
Denns BioMarkt;Kottbusser Damm 3, 10967 Berlin;4.1;19;12;1;6;2;2;1;7;0;0;3;0;0;1;0;58;20;0;0;5;52.4950088;13.4205781;3.747503319;13;13;13;14;13;13;0;0;3;0;0;0.195121951;5.125;8;41;0.24
REWE City;Friedrichstraﬂe 100, 10117 Berlin;4;11;9;5;4;0;0;0;2;0;0;2;0;1;0;0;1335;15;0;0;66;52.5205148;13.3884141;0.8655001;15;15;15;14;15;15;0;0;40;4;1;0.122680412;8.151260504;119;970;0.12
BIO COMPANY Hasenheide;Hasenheide 32-38, 10967 Berlin;3.5;2;0;0;0;0;0;0;2;0;1;3;0;0;1;0;61;15;0;0;15;52.4885502;13.4150253;3.990140997;13;13;13;14;13;13;0;0;6;5;0;0.487179487;2.052631579;19;39;0.03
BIO COMPANY Skalitzer Straﬂe;Skalitzer Str. 127, 10999 Berlin;3.9;9;3;0;0;3;0;0;6;0;0;3;0;0;1;0;52;15;0;0;6;52.499445;13.4210359;3.482789241;13;13;13;14;13;13;0;0;5;2;1;0.236842105;4.222222222;9;38;0.11
Eurogida Tempelhof;Tempelhofer Damm 2, 12101 Berlin;4.3;6;0;0;0;0;0;0;6;0;0;3;0;0;1;0;691;20;0;0;22;52.4840222;13.3853134;3.627207285;12;12;12;12;12;12;0;0;17;0;0;0.070934256;14.09756098;41;578;0.08
Eurogida Wilmersdorf;Bundesallee 180, 10717 Berlin;4.1;6;0;0;0;0;0;0;6;0;0;3;0;0;1;0;1068;15;0;0;74;52.4877031;13.3315068;4.462771925;12;12;12;12;12;12;0;0;32;3;1;0.14691358;6.806722689;119;810;0.08
EDEKA Ungefroren;Fischerinsel 12, 10179 Berlin;4;18;11;6;4;0;0;1;7;0;0;2;0;1;0;0;672;15;0;0;37;52.5135433;13.4057764;1.925896417;14;14;14;14;14;14;0;0;24;5;1;0.15257732;6.554054054;74;485;0.21
Asia Market Lee GmbH;Dircksenstraﬂe 101-103 In den S-Bahnbˆgen, 10179 Berlin;4.5;5;0;0;0;0;0;0;5;0;0;4;0;0;0;1;1593;10;0;0;32;52.5190773;13.4148664;2.536626831;11;11;11;11;11;11;0;0;26;1;0;0.041403509;24.15254237;59;1425;0.08
HIT Ullrich;Mohrenstraﬂe 69, 10117 Berlin;4.3;9;7;0;1;5;1;0;2;0;0;3;0;0;1;0;1560;20;0;0;57;52.5117828;13.3838833;0.652158985;14;14;15;14;15;15;0;0;27;1;0;0.077155825;12.96078431;102;1322;0.1
Kaufland;Karl-Marx-Straﬂe 66, 12043 Berlin;4.1;7;0;0;0;0;0;0;7;0;1;2;0;1;0;0;1377;15;0;0;87;52.4821083;13.432765;5.328156786;15;15;15;14;15;15;0;1;39;2;0;0.141651032;7.059602649;151;1066;0.08
Gizem Supermarkt (CLOSED);Hermannstraﬂe 222, 12049 Berlin;4;0;0;0;0;0;0;0;0;0;0;2;0;1;0;0;24;10;0;0;5;52.4796197;13.4257515;5.220423493;13.9;13.9;13.9;13.9;13.9;13.9;0;0;1;0;0;0.294117647;3.4;5;17;0
ALDI Nord;Invalidenstraﬂe 59, 10557 Berlin;4.1;17;10;0;5;2;0;3;7;0;1;2;0;1;0;0;995;20;0;0;48;52.524151;13.3640766;1.273083231;14;14;14;14;14;14;0;0;43;4;1;0.12037037;8.307692308;91;756;0.2
Adalat supermarkt;Karl-Marx-Straﬂe 153, 12043 Berlin;4.3;6;0;0;0;0;0;0;6;0;0;3;0;0;1;0;88;20;0;0;4;52.4759567;13.4397216;6.149004334;12;12;12;12;12;12;0;0;4;0;0;0.083333333;12;6;72;0.08
EDEKA Treugut;Heidelberger Str. 90, 12435 Berlin;4.2;9;4;0;2;0;2;0;5;0;1;2;0;1;0;0;917;20;0;0;56;52.4889983;13.4474177;5.615703337;14;14;14;14;14;14;0;0;39;3;0;0.124492558;8.032608696;92;739;0.11
Kaufland Berlin-Mitte;Parkplatz ¸ber Rochstraﬂe zu erreichen, Karl-Liebknecht-Str. 13, 10178 Berlin;4.2;7;0;0;0;0;0;0;7;0;1;2;0;1;0;0;4494;25;0;0;206;52.5223268;13.40808;2.165066547;15;15;15;14;15;15;0;0;113;11;4;0.096212331;10.39367816;348;3617;0.08
Netto;Alex-Wedding-Straﬂe 3, 10178 Berlin;4;18;16;6;5;1;4;0;2;0;1;2;0;1;0;0;517;15;0;0;33;52.52511;13.4154923;2.742045305;15;15;15;15;15;15;0;1;26;4;0;0.1484375;6.736842105;57;384;0.2
BIO COMPANY Neufertstraﬂe;Neufertstraﬂe 19-21, 14059 Berlin;4;5;1;0;0;1;0;0;4;0;0;3;0;0;1;0;80;15;0;0;10;52.5175835;13.2931352;5.73061905;13;13;13;14;13;13;0;0;1;0;0;0.203125;4.923076923;13;64;0.06
Kaufland Berlin-Moabit;Perleberger Str. 42 A, 10559 Berlin;4.3;9;0;0;0;0;0;0;9;0;1;2;0;1;0;0;1915;25;0;0;72;52.5288541;13.3440359;2.676029017;15;15;15;14;15;15;0;1;26;1;0;0.083858764;11.92481203;133;1586;0.1
EDEKA Wiesbadener Straﬂe;Wiesbadener Str. 53-55, 14197 Berlin;4.3;16;7;0;0;0;0;7;9;0;1;3;0;0;1;0;2504;25;0;0;130;52.4734862;13.3022803;6.987071786;16;16;16;14;16;15;0;0;105;1;0;0.107177033;9.330357143;224;2090;0.17
Eurogida Neukˆlln I;Karl-Marx-Straﬂe 225, 12055 Berlin;3.9;5;0;0;0;0;0;0;5;0;0;3;0;0;1;0;2385;25;0;0;211;52.4698408;13.4419189;6.757346671;12;12;12;12;12;12;0;0;165;66;8;0.210746269;4.745042493;353;1675;0.07
"""KLEENE"" BIO COMPANY Rudi-Dutschke-Straﬂe";Rudi-Dutschke-Straﬂe 17, 10969 Berlin;4.1;2;2;0;1;0;1;0;0;0;0;2;0;1;0;0;33;15;0;0;5;52.5067321;13.3935776;1.511635867;12.5;12.5;12.5;14;12.5;12.5;0;0;3;0;0;0.24;4.166666667;6;25;0.03
Alnatura Super Natur Markt;Else-Lasker-Sch¸ler-Straﬂe 18, 10783 Berlin;4.4;11;4;0;3;0;1;0;7;0;1;2;0;1;0;0;582;15;0;0;18;52.5001126;13.3546431;2.382943447;13.5;13.5;13.5;13.5;13.5;13.5;0;0;14;0;0;0.072265625;13.83783784;37;512;0.14
Kaufland;Brunnenstraﬂe 105-109, 13355 Berlin;4.1;12;3;0;0;0;0;3;9;0;1;2;0;1;0;0;3915;32.5;0;0;207;52.5478953;13.3912181;3.636972953;17;17;17;14;17;16.5;0;1;195;7;2;0.114563107;8.728813559;354;3090;0.12
BIO COMPANY Uhlandstraﬂe;Uhlandstraﬂe 41, 10719 Berlin;3.8;6;6;0;2;1;0;3;0;0;1;3;0;0;1;0;73;15;0;0;11;52.4992119;13.3243861;4.081483594;13;13;13;14;13;13;0;0;7;6;1;0.264150943;3.785714286;14;53;0.08
BIO COMPANY Wilhelmsaue;Uhlandstraﬂe 103, 10715 Berlin;4.2;21;12;0;2;3;3;4;9;0;0;3;0;0;1;0;74;15;0;0;9;52.4859252;13.3229601;5.017626691;13;13;13;14;13;13;0;0;5;0;0;0.169491525;5.9;10;59;0.27
Hit Ullrich Consumer market;Kantstraﬂe 7, 10623 Berlin;4;0;0;0;0;0;0;0;0;0;0;2;0;1;0;0;8400;20;0;1;401;52.5063593;13.331368;3.32764931;16;16;16;16;16;16;13;0;132;13;3;0.133941665;7.46593674;822;6137;0
REWE Markt;Uhlandstraﬂe 30, 10719 Berlin;4.5;19;10;2;3;3;2;0;9;0;1;1;1;0;0;0;738;20;0;0;24;52.5009799;13.3248587;3.964684481;18;18;18;14;18;17.5;0;0;18;1;0;0.050822123;19.67647059;34;669;0.18
EDEKA Jost & Jost;Kantstraﬂe 24, 10623 Berlin;3.9;15;12;0;6;4;2;0;3;0;0;3;0;0;1;0;489;15;0;0;24;52.5061218;13.3204095;4.042890541;12;12;12;14;12;13;0;0;1;0;0;0.183183183;5.459016393;61;333;0.2
EDEKA Center Berlin Moabit;Stephanstraﬂe 37-43, 10559 Berlin;4.3;16;8;0;3;3;2;0;8;0;1;2;0;1;0;0;1663;15;0;0;85;52.5318059;13.3439824;2.864533227;15;15;15;14;15;15;0;1;46;0;0;0.099560761;10.04411765;136;1366;0.18
EDEKA Wittenbergplatz;Wittenbergpl. 4, 10789 Berlin;3.5;21;16;0;4;3;5;4;5;0;0;2;0;1;0;0;1416;15;0;0;203;52.5026332;13.343827;2.752146436;17;17;17;14;17;16.5;0;1;111;62;8;0.44015444;2.271929825;342;777;0.21
Nah und Gut Voelker;D¸sseldorfer Str. 74, 10719 Berlin;4.3;19;14;1;2;4;6;1;5;0;1;3;0;0;1;0;331;15;0;0;21;52.4949863;13.3236334;4.363383907;12;12;12;14;12;10;0;0;17;0;0;0.105072464;9.517241379;29;276;0.26
TS Foods Supermarkt;Alt-Moabit 74, 10555 Berlin;4.2;4;1;0;1;0;0;0;3;0;0;4;0;0;0;1;1040;20;0;0;46;52.524075;13.3330796;3.144915093;10;10;10;10;10;10;0;0;12;1;0;0.092882992;10.76623377;77;829;0.07
EDEKA Wilmersdorfer Str.;Wilmersdorfer Str. 46, 10627 Berlin;4.1;9;0;0;0;0;0;0;9;0;1;4;0;0;0;1;835;15;0;0;56;52.5096139;13.3052286;4.965670893;13;13;13;14;13;13;0;1;31;3;0;0.127158556;7.864197531;81;637;0.11
VINH-LOI Asien Supermarkt;Ansbacher Str. 16, 10787 Berlin;4.1;4;1;0;0;1;0;0;3;0;1;4;0;0;0;1;660;20;0;0;34;52.5032836;13.3424888;2.789980665;10;10;10;10;10;10;0;1;16;2;0;0.097701149;10.23529412;51;522;0.07
Istanbul Supermarkt;Hauptstraﬂe 113, 10827 Berlin;4.1;10;3;0;1;0;2;0;7;0;0;3;0;0;1;0;350;15;0;0;23;52.4818745;13.348952;4.296652661;14;14;14;14;14;14;0;0;17;2;0;0.141762452;7.054054054;37;261;0.12
REWE Markt;Wundtstraﬂe 26, 14059 Berlin;3.8;25;17;0;5;4;2;6;8;0;0;2;0;1;0;0;650;15;0;0;55;52.5108707;13.2918179;5.84946606;16;16;16;14;16;16;0;0;34;30;3;0.204545455;4.888888889;90;440;0.27
???? ??????????;Beusselstraﬂe 44R, 10553 Berlin;4.2;13;13;4;0;0;5;4;0;0;0;3;0;0;1;0;11;15;0;0;0;52.5329798;13.3277649;3.859810719;13;13;13;13;13;13;0;0;0;0;0;0.375;2.666666667;3;8;0.17
Europa Market;Lietzenburger Str. 28, 10789 Berlin;4.1;2;0;0;0;0;0;0;2;0;0;4;0;0;0;1;49;15;0;0;6;52.4996872;13.3347372;3.447438573;12;12;12;12;12;12;0;0;3;0;0;0.184210526;5.428571429;7;38;0.03
EDEKA Stepaniak;Berliner Straﬂe 2, 10715 Berlin;3.9;6;5;1;3;0;1;0;1;0;1;3;0;0;1;0;251;15;0;0;11;52.4881084;13.3347696;4.277366232;12;12;12;14;12;10;0;0;2;1;0;0.138121547;7.24;25;181;0.08
REWE Markt;Turmstraﬂe 48, 10551 Berlin;3.9;9;2;0;2;0;0;0;7;0;0;1;1;0;0;0;892;15;0;0;72;52.5271831;13.3329052;3.268325022;18;18;18;14;18;17.5;0;0;4;1;0;0.188311688;5.310344828;116;616;0.09
EDEKA Jenaerstraﬂe;Jenaer Str. 27, 10717 Berlin;3.9;20;17;0;7;2;6;2;3;0;0;2;0;1;0;0;199;15;0;0;17;52.4908229;13.3359117;4.00591936;15;15;15;14;15;15;0;0;3;2;0;0.239130435;4.181818182;33;138;0.23
REWE;Konstanzer Str. 53, 10707 Berlin;3.8;18;9;0;5;2;0;2;9;0;1;1;1;0;0;0;664;15;0;0;59;52.4955664;13.3112297;5.059813261;18;18;18;14;18;17.5;0;0;17;6;1;0.233853007;4.276190476;105;449;0.17
REWE Markt;Bartningallee 3, 10557 Berlin;3.9;16;16;3;4;3;6;0;0;0;1;2;0;1;0;0;806;15;0;0;35;52.5187557;13.3422516;2.417370858;15;15;15;14;15;15;0;0;11;6;2;0.159340659;6.275862069;87;546;0.18
Sheriffs Beef nah & frisch Supermarkt;Kurf¸rstendamm 152, 10709 Berlin;4.5;3;1;0;0;0;0;1;2;0;0;3;0;0;1;0;320;15;0;0;10;52.4985782;13.301451;5.529401936;12;12;12;12;13;13;0;0;1;0;0;0.052631579;19;15;285;0.04
REWE Markt;Kurf¸rstendamm 142, 10709 Berlin;3.9;21;13;0;5;4;2;2;8;0;0;1;1;0;0;0;1189;20;0;0;71;52.4979084;13.2975544;5.802748218;18;18;18;14;18;17.5;0;0;42;21;8;0.15598549;6.410852713;129;827;0.2
EDEKA Zahl;Otto-Suhr-Allee 105, 10585 Berlin;3.8;10;8;0;2;4;0;2;2;0;0;2;0;1;0;0;455;15;0;0;44;52.5169547;13.3071702;4.778657178;15;15;15;14;15;15;0;0;33;29;4;0.29209622;3.423529412;85;291;0.11
ALDI Nord;Huttenstraﬂe 41-44, 10553 Berlin;4;27;18;0;7;4;2;5;9;0;1;2;0;1;0;0;709;20;0;0;50;52.5280277;13.3177036;4.269396501;14;14;14;14;14;14;0;0;41;7;1;0.128301887;7.794117647;68;530;0.32
EDEKA Meichsner-Gˆrse;Karlsbader Str. 17, 14193 Berlin;4;18;15;0;4;4;4;3;3;0;1;3;0;0;1;0;358;15;0;0;24;52.4784682;13.2818957;7.7377016;12;12;12;14;12;12;0;0;2;0;0;0.152941176;6.538461538;39;255;0.24
PENNY-Markt Discounter;Grunewaldstraﬂe 36-37, 10823 Berlin;3.8;8;2;0;2;0;0;0;6;0;1;2;0;1;0;0;580;15;0;0;36;52.489353;13.345754;3.697156924;15;15;15;14;15;15;0;0;25;11;2;0.188679245;5.3;70;371;0.09
REWE Markt;Alte Potsdamer Str. 7, 10785 Berlin;4.1;7;1;1;0;0;0;0;6;0;1;3;0;0;1;0;963;10;0;0;54;52.5063925;13.3738537;1.130618682;13.5;13.5;13.5;14;13.5;13.5;0;1;42;3;1;0.107284768;9.320987654;81;755;0.09
ALDI;Mall of Berlin, Leipziger Pl. 12, 10117 Berlin;4.1;9;3;0;1;1;1;0;6;0;1;4;0;0;0;1;1148;10;0;0;39;52.5102334;13.3795824;0.684481169;12;12;12;12;12;12;0;1;35;2;1;0.100115075;9.988505747;87;869;0.13
EDEKA Reiche;Blissestraﬂe 36, 10713 Berlin;3.3;10;8;2;2;0;2;2;2;0;1;3;0;0;1;0;465;15;0;0;80;52.4820554;13.3200971;5.454487266;12;12;12;14;12;10;0;0;27;19;5;0.620535714;1.611510791;139;224;0.14
PENNY-Markt Discounter;Leibnizstraﬂe 23, 10625 Berlin;3.9;13;8;2;2;3;1;0;5;0;0;2;0;1;0;0;610;15;0;0;38;52.5095059;13.3146698;4.336359555;15;15;15;14;15;15;0;0;13;5;2;0.162352941;6.15942029;69;425;0.15
REWE Markt;Europaplatz 1, 10557 Berlin;3.8;3;2;0;0;0;0;2;1;0;0;1;1;0;0;0;2029;20;0;1;186;52.5246935;13.3692935;1.09671448;16;16;16;14;16;16;14;1;39;35;4;0.226903178;4.407166124;307;1353;0.03
ALDI Nord;Theodor-Heuss-Platz 7, 14052 Berlin;3.8;35;26;3;5;7;4;7;9;0;1;2;0;1;0;0;916;20;0;0;66;52.508566;13.2721047;7.205412433;15;15;15;15;15;15;0;0;5;5;0;0.223880597;4.466666667;135;603;0.39
EDEKA Bahnhof S¸dkreuz;Hildegard-Knef-Platz 1, 10829 Berlin;4;7;0;0;0;0;0;0;0;7;0;1;1;0;0;0;2400;20;0;1;134;52.4763722;13.3648375;4.526740769;16;16;16;14;16;14;14;1;82;9;1;0.140430351;7.120967742;248;1766;0.07
ALDI Nord;F¸rstenbrunner Weg 50, 14059 Berlin;4.1;5;0;0;0;0;0;0;5;0;1;2;0;1;0;0;446;20;0;0;23;52.5236142;13.2803631;6.643932359;14;14;14;14;14;14;0;0;20;2;1;0.112044818;8.925;40;357;0.06
PENNY-Markt Discounter;Turmstraﬂe 68-69, 10551 Berlin;3.9;17;8;2;3;1;0;2;9;0;1;2;0;1;0;0;697;20;0;0;45;52.5268494;13.3318091;3.324042738;15;15;15;14;15;15;0;0;36;20;8;0.182590234;5.476744186;86;471;0.19
REWE;Invalidenstraﬂe 23-26, 10115 Berlin;4.4;5;1;0;1;0;0;0;4;0;0;2;0;1;0;0;1927;20;0;0;68;52.5321452;13.396972;2.196397604;16;16;16;14;16;16;0;0;27;1;0;0.063501484;15.74766355;107;1685;0.05
EDEKA Vaupel;Wiclefstraﬂe 60-62, 10551 Berlin;3.5;5;5;2;0;3;0;0;0;0;0;3;0;0;1;0;316;15;0;0;48;52.53013;13.3372101;3.146617437;12;12;12;14;12;12;0;0;41;31;5;0.430167598;2.324675325;77;179;0.07
EDEKA Sapphire;Chausseestraﬂe 43, 10115 Berlin;4.2;21;17;3;6;3;5;0;4;0;0;2;0;1;0;0;822;15;0;0;27;52.5341038;13.3789307;1.986431147;14;14;14;14;14;14;0;0;9;1;0;0.073099415;13.68;50;684;0.25
PENNY;Kurf¸rstendamm 156, 10709 Berlin;4.1;13;5;0;2;0;0;3;8;0;0;2;0;1;0;0;556;20;0;0;17;52.4985773;13.3034412;5.403653599;15;15;15;14;15;15;0;0;1;0;0;0.08490566;11.77777778;36;424;0.15
REWE City;Friedrichstraﬂe 60, 10117 Berlin;4.2;13;9;3;4;2;0;0;4;0;0;2;0;1;0;0;1315;20;0;0;45;52.5104998;13.3904447;1.076250298;16.5;16.5;16.5;14;16.5;16.5;0;0;16;1;0;0.08293613;12.05747126;87;1049;0.14
Nah und Gut Fischer;Kolonnenstraﬂe 10, 10829 Berlin;3.7;4;4;0;1;3;0;0;0;0;0;3;0;0;1;0;177;15;0;0;21;52.4857215;13.3618206;3.56744764;12;12;12;14;12;10;0;0;9;8;1;0.285714286;3.5;34;119;0.06
EDEKA Schatz;Sprengelstraﬂe 37, 13353 Berlin;3.2;12;9;2;2;2;1;2;3;0;1;3;0;0;1;0;566;15;0;0;113;52.5415643;13.3555916;3.188703208;12;12;12;14;12;12;0;0;41;39;2;0.619565217;1.614035088;171;276;0.16
EDEKA Moch;Grunerstraﬂe 20, 10179 Berlin;4.2;6;0;0;0;0;0;0;6;0;1;3;0;0;1;0;1460;15;0;0;72;52.5184957;13.4162341;2.621717947;13;13;13;14;13;13;0;1;30;2;1;0.088235294;11.33333333;105;1190;0.08
REWE Markt;Heidestraﬂe 41, 10557 Berlin;4.4;22;21;0;8;5;8;0;1;0;0;2;0;1;0;0;419;20;0;0;27;52.532377;13.3660115;1.959613421;15;15;15;14;15;15;0;0;16;0;0;0.111420613;8.975;40;359;0.25
The Market;Akazienstraﬂe 15, 10823 Berlin;4.3;3;3;0;0;0;3;0;0;0;0;2;0;1;0;0;29;10;0;0;3;52.4891087;13.3536914;3.434104297;18.5;18.5;18.5;18.5;20.5;20.5;0;0;2;0;0;0.12;8.333333333;3;25;0.03
Aldi Berlin Central;Berolinastraﬂe 7a, 10178 Berlin;4.3;7;7;3;0;0;4;0;0;0;0;2;0;1;0;0;480;20;0;0;15;52.5218285;13.4232076;3.143692179;14;14;14;14;14;14;0;0;5;0;0;0.075757576;13.2;30;396;0.08
Eurogida M¸llerstrasse;M¸llerstraﬂe 33, 13353 Berlin;4.1;5;0;0;0;0;0;0;5;0;0;2;0;1;0;0;924;20;0;0;58;52.5481703;13.3564688;3.830712099;13;13;13;13;13;13;0;0;52;5;1;0.145533141;6.871287129;101;694;0.06
Kiezmarkt;Groﬂe Hamburger Str. 39, 10115 Berlin;4;4;4;4;0;0;0;0;0;0;0;3;0;0;1;0;195;15;0;0;9;52.5267935;13.3985456;1.834089186;14;14;14;14;14;14;0;0;7;1;0;0.127659574;7.833333333;18;141;0.05
ASIA MIGHT - Market;Kurf¸rstenstraﬂe 33, 10785 Berlin;4.2;8;0;0;0;0;0;0;8;0;0;4;0;0;0;1;362;20;0;0;13;52.5001968;13.3615882;2.096598049;12;12;12;12;12;12;0;0;2;0;0;0.106164384;9.419354839;31;292;0.11
EDEKA Wirsich;Brixpl. 1-3, 14052 Berlin;3.6;13;8;1;3;2;2;0;5;0;1;2;0;1;0;0;295;15;0;0;35;52.5185374;13.2571155;8.17256712;13;13;13;14;13;13;0;0;3;2;0;0.337209302;2.965517241;58;172;0.17
ALDI Nord;Warnem¸nder Str. 8, 14199 Berlin;4.1;20;16;3;4;2;3;4;4;0;1;2;0;1;0;0;581;20;0;0;30;52.4732275;13.2904125;7.613462096;14;14;14;14;14;14;0;0;28;2;0;0.126106195;7.929824561;57;452;0.24
Alnatura Super Natur Markt;Konstanzer Str. 2, 10707 Berlin;4.4;11;7;0;3;3;0;1;4;0;0;3;0;0;1;0;209;15;0;0;10;52.4986835;13.3120438;4.860762337;13;13;13;13;13;13;0;0;4;0;0;0.064864865;15.41666667;12;185;0.14
REWE Markt;M¸llerstraﬂe 141, 13353 Berlin;3.9;10;1;0;1;0;0;0;9;0;1;2;0;1;0;0;890;15;0;0;76;52.5489798;13.3540563;3.977293885;15;15;15;14;15;15;0;1;62;23;2;0.190332326;5.253968254;126;662;0.11
EDEKA Treugut;B¸lowstraﬂe 83, 10783 Berlin;4.4;12;8;0;2;2;4;0;4;0;0;2;0;1;0;0;135;20;0;0;8;52.4980075;13.3627378;2.272341642;15;15;15;15;15;15;0;0;2;0;0;0.084745763;11.8;10;118;0.13
Denns BioMarkt;Grolmanstraﬂe 48, 10623 Berlin;3.6;3;2;0;2;0;0;0;1;0;0;3;0;0;1;0;36;15;0;0;9;52.5050732;13.3233234;3.889619425;13;13;13;14;13;13;0;0;4;4;0;0.458333333;2.181818182;11;24;0.04
Edeka;Rohrdamm 77, 13629 Berlin;3.9;16;11;1;3;5;2;0;5;0;0;3;0;0;1;0;106;10;0;0;9;52.5414798;13.2618732;8.331041157;12;12;12;12;12;12;0;0;7;2;0;0.228571429;4.375;16;70;0.22
REWE Markt;Rewe 40 0028 Ost, Sophie-Charlotten-Straﬂe 41, 14059 Berlin;5;10;0;0;0;0;0;0;10;0;1;2;0;1;0;0;1;20;0;0;0;52.5131917;13.287529;6.118476659;15;15;15;15;15;15;0;0;0;0;0;0;0;0;1;0.11
Kaufland Berlin-Reinickendorf;Ollenhauerstraﬂe 122, 13403 Berlin;4.1;7;0;0;0;0;0;0;7;0;1;2;0;1;0;0;3820;42.5;0;0;223;52.5676897;13.328805;6.611948938;17;17;17;14;17;16.5;0;0;120;11;1;0.127747253;7.827956989;372;2912;0.07
REWE Markt;Kurt-Schumacher-Damm 1-15, 13405 Berlin;3.9;21;16;0;8;6;2;0;5;0;1;2;0;1;0;0;1087;15;0;0;89;52.563078;13.3289199;6.168840542;15;15;15;14;15;15;0;1;14;7;3;0.189189189;5.285714286;147;777;0.24
ALDI Nord;Ollenhauerstraﬂe 106, 13403 Berlin;4.2;6;0;0;0;0;0;0;6;0;1;2;0;1;0;0;658;25;0;0;26;52.5707589;13.3279217;6.938610142;14;14;14;14;14;14;0;0;2;0;0;0.063985375;15.62857143;35;547;0.07
Netto Marken-Discount;Residenzstraﬂe 112, 13407 Berlin;3.7;19;10;1;3;4;0;2;9;0;1;2;0;1;0;0;765;20;0;0;78;52.5645523;13.3645712;5.44726216;15;15;15;15;15;15;0;0;45;40;1;0.318082789;3.143835616;146;459;0.21
REWE Markt;Emmentaler Str. 122-130, 13409 Berlin;4.1;17;7;2;3;2;0;0;10;0;1;2;0;1;0;0;1334;20;0;0;68;52.5717948;13.3654586;6.235786457;15;15;15;14;15;15;0;0;22;2;0;0.1132255;8.831932773;119;1051;0.19
ALDI Nord;Pankower Allee 17-19, 13409 Berlin;4;24;15;3;2;3;2;5;9;0;1;2;0;1;0;0;841;20;0;0;50;52.5642504;13.3667326;5.392008497;14;14;14;14;14;14;0;0;15;3;1;0.13495935;7.409638554;83;615;0.29
Nah und Gut Minh Nguyen;Gotthardstraﬂe 13-15, 13407 Berlin;4.6;3;0;0;0;0;0;0;3;0;0;3;0;0;1;0;76;15;0;0;2;52.5669478;13.3485815;5.975527075;11;11;11;11;11;10;0;0;1;0;0;0.057971014;17.25;4;69;0.05
Netto Marken-Discount;Scharnweberstraﬂe 120, 13405 Berlin;3.8;16;8;0;2;0;1;5;8;0;1;2;0;1;0;0;512;20;0;0;45;52.5648266;13.3219464;6.592581294;14;14;14;14;14;14;0;0;8;6;1;0.251497006;3.976190476;84;334;0.19
EDEKA Gˆrse & Meichsner;Eichborndamm 77-85, 13403 Berlin;4.4;15;8;0;4;1;3;0;7;0;1;2;0;1;0;0;2081;15;0;0;95;52.5757217;13.3144712;7.881367615;15;15;15;15;15;15;0;0;35;1;0;0.085650723;11.67532468;154;1798;0.17
ALDI Nord;Roedernallee 15-16, 13407 Berlin;4.2;7;3;0;0;0;0;3;4;0;1;2;0;1;0;0;561;20;0;0;15;52.58086;13.3470788;7.482485219;14;14;14;14;14;14;0;0;7;1;0;0.079646018;12.55555556;36;452;0.08
Edeka-Markt;Meller Bogen 2, 13403 Berlin;3.7;9;9;2;1;3;0;3;0;0;0;2;0;1;0;0;96;10;0;0;11;52.5705883;13.3211192;7.157558738;15;15;15;15;15;13;0;0;6;5;1;0.258064516;3.875;16;62;0.1
REWE Markt;Ernststraﬂe 7, 13509 Berlin;4.3;6;2;2;0;0;0;0;4;0;1;2;0;1;0;0;1073;20;0;0;37;52.5828888;13.2913725;9.441327439;15;15;15;14;15;15;0;0;10;0;0;0.064200218;15.57627119;59;919;0.07
PENNY;Residenzstraﬂe 11, 13409 Berlin;3.6;13;13;1;3;4;3;2;0;0;1;2;0;1;0;0;842;20;0;0;99;52.5720103;13.3594554;6.326225733;15;15;15;14;15;15;0;0;17;9;1;0.350104822;2.856287425;167;477;0.15
REWE Markt;Roedernallee 118, 13437 Berlin;3.9;15;7;0;3;2;0;2;8;0;1;2;0;1;0;0;723;15;0;0;52;52.5887526;13.3386774;8.489591957;15;15;15;14;15;15;0;0;15;7;2;0.172344689;5.802325581;86;499;0.17
EDEKA Frede;Ollenhauerstraﬂe 107, 13403 Berlin;4.2;5;1;0;0;0;0;1;4;0;1;2;0;1;0;0;1073;25;0;0;51;52.5701376;13.328056;6.873797359;14;14;14;14;14;14;0;0;40;3;1;0.085297419;11.72368421;76;891;0.06
Kaufland Berlin, Residenzstr.;Residenzstraﬂe 85, 13409 Berlin;4.1;16;4;0;0;0;0;4;12;0;1;2;0;1;0;0;3747;30;0;0;210;52.5589438;13.3737144;4.757544283;17;17;17;14;17;16.5;0;0;76;5;1;0.119750087;8.350724638;345;2881;0.16
EDEKA Residenzstraﬂe;Residenzstraﬂe 34, 13409 Berlin;3.6;15;12;0;4;6;0;2;3;0;1;2;0;1;0;0;437;15;0;0;47;52.5670852;13.3621322;5.753577976;13;13;13;14;13;13;0;1;35;29;6;0.323193916;3.094117647;85;263;0.19
EDEKA Schatz;Miraustraﬂe 62, 13509 Berlin;3.9;22;18;0;5;7;0;6;4;0;1;2;0;1;0;0;600;15;0;0;32;52.5858789;13.3077095;9.081986683;13;13;13;14;13;13;0;0;20;6;2;0.146853147;6.80952381;63;429;0.28
Eurogida Wittenau;Wilhelmsruher Damm 129, 13439 Berlin;3.8;7;0;0;0;0;0;0;7;0;1;3;0;0;1;0;443;10;0;0;54;52.5965454;13.35524;9.064078854;12;12;12;12;12;12;0;1;18;15;3;0.286206897;3.493975904;83;290;0.1
EDEKA Aras;Oraniendamm 6-10, 13469 Berlin;4;8;3;0;1;0;0;2;5;0;1;2;0;1;0;0;703;15;0;0;42;52.6076095;13.326442;10.74281029;13;13;13;14;14;14;0;0;12;1;0;0.144230769;6.933333333;75;520;0.1
Kaufland Berlin-Wittenau;Eichhorster Weg 96, 13435 Berlin;4.1;6;1;0;0;0;0;1;5;0;1;2;0;1;0;0;1568;42.5;0;0;77;52.603556;13.3354471;10.12818488;15;15;15;14;15;15;0;0;61;5;0;0.1104;9.057971014;138;1250;0.07
EDEKA Iden;Wilhelmsruher Damm 231, 13435 Berlin;4.2;18;13;0;5;4;0;4;5;0;1;0;0;0;0;0;2743;20;1;0;141;52.594792;13.3350537;9.204808001;17;12;0;14;0;23;0;0;48;5;1;0.103337906;9.67699115;226;2187;0.27
EDEKA Ulrich;Bernauer Str. 69-73, 13507 Berlin;3.9;14;9;1;3;0;5;0;5;0;1;2;0;1;0;0;631;20;0;0;57;52.5752098;13.2836179;9.143811961;15;15;15;14;15;15;0;0;7;3;0;0.207964602;4.808510638;94;452;0.16
REWE Markt;Am Borsigturm 2, 13507 Berlin;4;7;0;0;0;0;0;0;7;0;1;2;0;1;0;0;655;10;0;0;30;52.5847283;13.2863261;9.814532235;15;15;15;14;15;15;0;1;10;2;1;0.104294479;9.588235294;51;489;0.08
Lidl;Berliner Str. 141, 13467 Berlin;4.2;13;5;0;0;0;1;4;8;0;1;2;0;1;0;0;826;25;0;0;46;52.613077;13.3138348;11.61031807;14;14;14;14;14;14;0;0;32;3;0;0.09186747;10.8852459;61;664;0.16
EDEKA Bestvater;Zabel-Kr¸ger-Damm 29, 13469 Berlin;4.3;7;3;0;1;0;0;2;4;0;1;2;0;1;0;0;656;20;0;0;22;52.6096648;13.3288818;10.90843882;15;15;15;14;15;15;0;0;20;1;0;0.057866184;17.28125;32;553;0.08
Kaufland Berlin-M‰rkisches Viertel;Senftenberger Ring 15-17, 13439 Berlin;4;8;0;0;0;0;0;0;8;0;1;2;0;1;0;0;1180;20;0;0;82;52.5991143;13.354199;9.357830422;15;15;15;14;15;15;0;1;32;4;0;0.170387779;5.868965517;145;851;0.09
EDEKA Peth;Holl‰nderstraﬂe 70, 13407 Berlin;4.1;14;14;2;3;4;4;1;0;0;0;2;0;1;0;0;448;15;0;0;23;52.5630343;13.3430162;5.710525288;12;12;12;14;12;11;0;0;14;1;0;0.102040816;9.8;35;343;0.19
Alnatura Super Natur Markt;Ecke, Bernstorffstraﬂe 13a, 13507 Berlin;4.2;16;10;0;1;2;3;4;6;0;1;3;0;0;1;0;295;15;0;0;15;52.5914232;13.2862175;10.40787421;12;12;12;12;12;12;0;0;1;0;0;0.092369478;10.82608696;23;249;0.22
EDEKA Gˆrse & Meichsner;Hauptstraﬂe 23-27, 13158 Berlin;3.6;18;15;3;3;3;4;2;3;0;0;2;0;1;0;0;390;15;0;0;48;52.5864478;13.3678551;7.839995079;13;13;13;14;13;13;0;0;21;17;4;0.326086957;3.066666667;75;230;0.23
REWE Markt;Heinsestraﬂe 46-48, 13467 Berlin;3.9;25;22;1;6;6;6;3;3;0;1;2;0;1;0;0;115;15;0;0;8;52.6187377;13.3058706;12.3985087;15;15;15;15;15;15;0;0;7;3;0;0.182926829;5.466666667;15;82;0.28
EDEKA Fromm;M¸llerstraﬂe 127, 13349 Berlin;4.2;9;6;0;3;1;0;2;3;0;1;3;0;0;1;0;561;15;0;0;25;52.5526436;13.3475541;4.534161674;14;14;14;14;14;14;0;0;8;1;0;0.112831858;8.862745098;51;452;0.11
EDEKA Fromm;M¸llerstraﬂe 127, 13349 Berlin;4.2;18;9;0;6;3;0;0;9;0;1;3;0;0;1;0;561;20;0;0;25;52.5526436;13.3475541;4.534161674;14;14;14;14;14;14;0;0;10;1;0;0.112831858;8.862745098;51;452;0.21
EDEKA Pankow KG KW;Friedrich-Engels-Straﬂe 92-96, 13156 Berlin;3.9;11;7;3;3;1;0;0;4;0;1;2;0;1;0;0;395;15;0;0;36;52.5884104;13.3892151;8.067786876;13;13;13;14;13;13;0;0;27;11;3;0.185714286;5.384615385;52;280;0.14
REWE City;Glienicker Str. 6, 13467 Berlin;4.2;21;16;4;5;5;0;2;5;0;0;2;0;1;0;0;386;15;0;0;11;52.6176925;13.3084232;12.22430893;15;15;15;14;15;15;0;0;2;0;0;0.077160494;12.96;25;324;0.24
REWE Markt;Achillesstraﬂe 46, 13125 Berlin;3.9;11;9;2;0;0;7;0;2;0;1;2;0;1;0;0;769;20;0;0;54;52.6184176;13.48678;13.55573714;15;15;15;15;15;15;0;1;41;23;7;0.151943463;6.581395349;86;566;0.12
REWE Markt;Invalidenstraﬂe 23-26, 10115 Berlin;4.4;7;4;1;1;0;2;0;3;0;1;2;0;1;0;0;1944;20;0;0;69;52.5321244;13.3971152;2.200317221;16;16;16;14;16;16;0;0;67;3;0;0.063501484;15.74766355;107;1685;0.07
EDEKA Albrechtstraﬂe;Albrechtstr. 23, 12167 Berlin;3.6;12;7;1;2;0;4;0;5;0;1;2;0;1;0;0;619;15;0;0;78;52.4533711;13.3291102;7.738587087;14;14;14;14;14;14;0;1;37;31;6;0.324396783;3.082644628;121;373;0.14
EDEKA Voelker;Albrechtstr. 3, 12165 Berlin;3.8;22;20;4;5;4;7;0;2;0;1;3;0;0;1;0;700;15;0;0;69;52.4563722;13.3215837;7.677205187;16;16;18;18;18;15;0;1;17;4;1;0.235169492;4.252252252;111;472;0.22
SPAR Express;Alexanderplatz U-Bahnhof, 1, 10178 Berlin;2.8;0;0;0;0;0;0;0;0;0;1;4;0;0;0;1;58;10;0;0;22;52.5215313;13.4123996;2.421950464;0;0;0;0;0;0;0;1;20;17;2;1.125;0.888888889;27;24;0.01
REWE Markt;Alfred-Jung-Straﬂe 12, 10369 Berlin;4.2;2;2;0;2;0;0;0;0;0;1;2;0;1;0;0;356;15;0;0;14;52.5233043;13.4775486;6.808240928;15;15;15;15;15;15;0;0;8;1;0;0.089285714;11.2;25;280;0.02
ALDI Nord;Alfred-Kowalke-Straﬂe 2, 10315 Berlin;4.2;20;13;3;2;0;8;0;7;0;1;2;0;1;0;0;725;25;0;0;42;52.5044987;13.5164753;9.492846385;14;14;14;14;14;14;0;1;22;2;0;0.095400341;10.48214286;56;587;0.24
REWE Markt;Alfred-Kowalke-Straﬂe 2, 10315 Berlin;4;23;16;2;6;1;7;0;7;0;1;2;0;1;0;0;1035;20;0;0;87;52.5047457;13.515145;9.399769435;15;15;15;15;15;15;0;1;3;1;0;0.171834625;5.819548872;133;774;0.26
REWE Markt;Allee der Kosmonauten 196, 12685 Berlin;4;24;15;3;4;2;4;2;9;0;1;2;0;1;0;0;1391;20;0;0;107;52.5411881;13.5650296;12.98579213;15;15;15;15;15;15;0;1;37;7;2;0.16426513;6.087719298;171;1041;0.27
REWE Markt;Alt-Rudow 64, 12355 Berlin;4;20;16;3;5;2;6;0;4;0;1;1;1;0;0;0;640;20;0;0;33;52.4172709;13.4959121;13.62831992;16;16;16;16;16;16;0;0;13;2;0;0.143162393;6.985074627;67;468;0.21
Nah und Gut Brabanski;Alt-Tempelhof 31-33, 12103 Berlin;3.9;11;11;3;2;3;3;0;0;0;0;3;0;0;1;0;257;15;0;0;19;52.4655096;13.3834863;5.664753087;12;12;12;12;12;12;0;0;6;2;0;0.228571429;4.375;40;175;0.15
PENNY;Alt-Kaulsdorf 2, 12621 Berlin;4.2;11;7;1;1;3;1;1;4;0;1;2;0;1;0;0;354;20;0;0;11;52.5048512;13.5801077;13.77183336;13;13;13;13;13;13;0;0;4;0;0;0.081272085;12.30434783;23;283;0.14
ALDI Nord;Alt-Kaulsdorf 64, 12621 Berlin;4;15;12;3;4;0;5;0;3;0;1;2;0;1;0;0;246;25;0;0;12;52.5045603;13.590301;14.46255763;13;13;13;13;13;13;0;1;10;1;0;0.117318436;8.523809524;21;179;0.19
REWE Markt;Alt-Kaulsdorf 64, 12621 Berlin;3.9;11;6;0;0;1;5;0;5;0;1;2;0;1;0;0;674;20;0;0;51;52.504536;13.590525;14.47791995;15;15;15;15;15;15;0;1;35;18;7;0.165966387;6.025316456;79;476;0.12
EDEKA Alt-Lietzow;Alt-Lietzow 15 - 19, 10587 Berlin;4.2;15;8;0;2;3;3;0;7;0;1;3;0;0;1;0;481;20;0;0;27;52.5189994;13.3094947;4.630428332;13;13;13;13;13;13;0;0;23;2;0;0.119791667;8.347826087;46;384;0.19
PENNY;Alt-Mahlsdorf 48-49, 12623 Berlin;4.2;28;20;0;5;3;5;7;8;0;1;2;0;1;0;0;490;20;0;0;12;52.5049517;13.6195179;16.43146126;14;14;14;14;14;14;0;0;9;1;0;0.073604061;13.5862069;29;394;0.33
EDEKA Alt-Rudow;Alt-Rudow 72-74, 12355 Berlin;4.1;10;5;0;4;0;1;0;5;0;1;2;0;1;0;0;1169;25;0;0;69;52.4162472;13.4966141;13.74856586;15;15;15;15;15;15;0;0;21;2;0;0.124863089;8.00877193;114;913;0.11
EDEKA Hummel;Am Flugplatz Gatow 10, 14089 Berlin;4;32;24;2;5;4;9;4;8;0;1;2;0;1;0;0;458;15;0;0;32;52.4717174;13.1250616;17.82708761;14;14;14;14;14;14;0;0;23;5;1;0.149122807;6.705882353;51;342;0.38
PENNY;Am Kiesteich 61-63, 13589 Berlin;3.8;24;17;0;5;3;4;5;7;0;1;2;0;1;0;0;587;20;0;0;51;52.5505101;13.164068;14.96003622;15;15;15;15;15;15;0;0;44;35;4;0.214470284;4.662650602;83;387;0.27
EDEKA Center Brehm;An d. Schule 82, 12623 Berlin;4.6;10;3;0;0;0;3;0;7;0;1;3;0;0;1;0;2478;30;0;0;67;52.5056849;13.6145161;16.08728572;14;14;14;14;14;14;0;0;38;1;0;0.044532628;22.45544554;101;2268;0.12
REWE Markt;Angerburger Allee 45, 14055 Berlin;3.5;13;8;2;2;1;3;0;5;0;0;2;0;1;0;0;279;15;0;0;39;52.5093657;13.2220254;10.57480295;14;14;14;14;14;14;0;0;11;9;1;0.437908497;2.28358209;67;153;0.16
EDEKA Annenstraﬂe;Annenstraﬂe 4 A, 10179 Berlin;3.6;15;6;0;2;1;3;0;9;0;0;2;0;1;0;0;951;20;0;0;113;52.5077117;13.4150472;2.703578898;17;17;19;19;19;16.5;0;0;29;19;5;0.341030195;2.932291667;192;563;0.14
Norma;Anton-Saefkow-Platz 8, 10369 Berlin;3.8;10;8;1;4;1;2;0;2;0;1;2;0;1;0;0;421;20;0;0;29;52.5284716;13.4715872;6.502275515;14;14;14;14;14;14;0;1;1;1;0;0.221014493;4.524590164;61;276;0.12
REWE Markt;Badstraﬂe 57-58, 13357 Berlin;3.8;15;8;2;3;0;3;0;7;0;0;2;0;1;0;0;695;15;0;0;61;52.5514448;13.3827182;3.929779753;17;17;19;19;19;16.5;0;0;35;31;4;0.21888412;4.568627451;102;466;0.14
Tariq Food;Badstraﬂe 55, 13357 Berlin;4.1;3;0;0;0;0;0;0;3;0;0;4;0;0;0;1;594;20;0;0;41;52.5518138;13.3820254;3.966968383;11;11;11;11;11;11;0;0;27;2;1;0.137044968;7.296875;64;467;0.05
REWE Markt;Bahnhofstraﬂe 23-25, 12555 Berlin;4.1;21;20;2;7;4;7;0;1;0;1;1;1;0;0;0;651;15;0;0;39;52.4578486;13.5790176;15.11710836;16;16;16;16;16;16;0;1;16;1;0;0.13253012;7.545454545;66;498;0.22
EDEKA Gayermann;Barnetstraﬂe 41-42, 12305 Berlin;4.3;33;26;0;7;6;8;5;7;0;1;2;0;1;0;0;1529;20;0;0;53;52.3982977;13.3909775;13.16400064;15;15;15;15;15;15;0;0;42;2;1;0.075978511;13.16161616;99;1303;0.37
EDEKA Baumschulenstraﬂe;Baumschulenstraﬂe 31, 12437 Berlin;3.9;22;16;2;5;2;7;0;6;0;1;2;0;1;0;0;1478;20;0;0;148;52.4641585;13.4855967;9.334940465;17;17;17;17;17;16.5;0;0;107;58;8;0.224154589;4.461206897;232;1035;0.22
REWE Markt;Bayernring 15, 12101 Berlin;3.8;24;17;4;3;4;6;0;7;0;0;1;1;0;0;0;707;15;0;0;59;52.4836891;13.3775084;3.627470013;18;18;20;20;20;17.5;0;0;18;16;2;0.21656051;4.617647059;102;471;0.21
EDEKA Herrmann;Bekassinenweg 24, 13503 Berlin;4.3;11;8;1;3;0;4;0;3;0;1;2;0;1;0;0;263;15;0;0;10;52.6082961;13.2354047;14.05923061;13;13;13;13;13;13;0;0;8;0;0;0.085308057;11.72222222;18;211;0.14
EDEKA Berkaer Straﬂe;Berkaer Str. 1, 14199 Berlin;4.1;12;9;0;1;0;8;0;3;0;1;2;0;1;0;0;338;20;0;0;6;52.4759315;13.2901705;7.440612283;13.5;13.5;13.5;13.5;13.5;13.5;0;0;4;0;0;0.082304527;12.15;20;243;0.15
EDEKA Erler;Berlepschstraﬂe 74, 14165 Berlin;4.2;25;21;0;7;7;7;0;4;0;1;2;0;1;0;0;470;15;0;0;19;52.4263659;13.2441303;13.49875145;13;13;13;13;13;13;0;0;19;2;0;0.08847185;11.3030303;33;373;0.32
EDEKA Peth;Berliner Allee 100, 13088 Berlin;3.3;14;11;4;2;3;2;0;3;0;0;2;0;1;0;0;397;15;0;0;77;52.5498108;13.4588194;6.641363803;13;13;13;13;13;13;0;0;63;51;10;0.54950495;1.81981982;111;202;0.18
EDEKA Safa;Berliner Str. 96, 13507 Berlin;3.9;18;15;0;8;0;7;0;3;0;1;2;0;1;0;0;772;20;0;0;63;52.5890186;13.284601;10.26090235;15;15;15;15;15;15;0;0;43;21;3;0.197416974;5.065420561;107;542;0.2
EDEKA Busse;Bernauer Str. 44-53, 16341 Panketal;4.3;8;4;0;0;0;4;0;4;0;1;2;0;1;0;0;757;20;0;0;25;52.6559496;13.5465122;19.2901063;13;13;13;13;13;13;0;0;7;0;0;0.066153846;15.11627907;43;650;0.1
REWE Markt;Bernhard-B‰stlein-Straﬂe 1, 10367 Berlin;4.1;33;25;6;8;2;8;1;8;0;1;2;0;1;0;0;1317;20;0;0;97;52.5274866;13.4812289;7.122285397;15;15;15;15;15;15;0;0;82;8;0;0.143422354;6.972413793;145;1011;0.37
NP-Markt Berlin;Bernhard-B‰stlein-Straﬂe 5, 10367 Berlin;3.6;10;8;0;4;1;3;0;2;0;1;2;0;1;0;0;367;15;0;0;46;52.5282249;13.4814175;7.149639144;15;15;15;15;15;15;0;0;12;9;3;0.372727273;2.682926829;82;220;0.11
REWE Markt;Bismarckstraﬂe 68-69, 12157 Berlin;4.1;19;10;1;3;2;4;0;9;0;1;1;1;0;0;0;504;15;0;0;19;52.4619099;13.3396238;6.579372137;16;16;16;16;16;16;0;0;13;1;0;0.111688312;8.953488372;43;385;0.2
REWE Markt;Bismarckstraﬂe 91, 10625 Berlin;4;35;30;3;10;8;9;0;5;0;1;1;1;0;0;0;869;15;0;0;51;52.5114941;13.3096247;4.642678758;18;18;20;20;20;17.5;0;0;47;7;0;0.128482972;7.78313253;83;646;0.31
EDEKA Hannemann;Bizetstraﬂe 25-27, 13088 Berlin;3.7;25;16;2;4;4;6;0;9;0;1;2;0;1;0;0;950;20;0;0;97;52.5475808;13.4515826;6.097032298;15;15;15;15;15;15;0;1;83;74;9;0.287804878;3.474576271;177;615;0.28
EDEKA Center Niemann;Blankenburger Str. 81, 13156 Berlin;4.2;8;3;0;0;0;3;0;5;0;1;2;0;1;0;0;1685;25;0;0;101;52.5847987;13.4167152;8.072154357;15;15;15;15;15;15;0;0;93;9;3;0.097631012;10.24264706;136;1393;0.09
EDEKA Voigt;Bˆlschestraﬂe 36, 12587 Berlin;4;7;3;0;1;0;2;0;4;0;1;2;0;1;0;0;1349;20;0;0;108;52.451493;13.6251167;18.25716833;17;17;19;19;19;16.5;0;0;75;12;2;0.157380254;6.354037267;161;1023;0.07
REWE Markt;Breisgauer Str. 1, 14129 Berlin;3.9;20;17;3;4;3;5;2;3;0;1;1;1;0;0;0;640;25;0;0;66;52.4394952;13.2157656;13.91417235;16;16;16;16;16;16;0;0;33;12;0;0.211328976;4.731958763;97;459;0.21
ALDI Nord;Breisgauer Str. 1b, 14129 Berlin;4.1;0;0;0;0;0;0;0;0;0;1;2;0;1;0;0;265;10;0;0;17;52.4396633;13.2169211;13.84088055;0;0;0;0;0;0;0;0;2;0;0;0.100961538;9.904761905;21;208;0.01
Nah und Gut Voelker;Breisgauer Str. 20, 14129 Berlin;4.5;5;2;0;0;0;2;0;3;0;1;3;0;0;1;0;237;15;0;0;6;52.4366247;13.2159056;14.10560564;12;12;12;12;12;10;0;0;2;0;0;0.04784689;20.9;10;209;0.07
EDEKA Brieger Straﬂe;Brieger Str. 1, 12249 Berlin;3.6;13;8;1;4;0;3;0;5;0;1;2;0;1;0;0;336;15;0;0;41;52.4332704;13.3598053;9.319391865;14;14;14;14;14;14;0;0;40;35;5;0.36318408;2.753424658;73;201;0.16
EDEKA Berlin Britzer Damm;Britzer Damm 55-59, 12347 Berlin;3.9;22;14;2;5;0;7;0;8;0;1;2;0;1;0;0;696;20;0;0;62;52.4574405;13.437357;7.697181363;15;15;15;15;15;15;0;0;32;14;3;0.196819085;5.080808081;99;503;0.24
REWE Markt;Brodowiner Ring 8, 12679 Berlin;4.1;26;17;3;4;3;4;3;9;0;1;2;0;1;0;0;740;20;0;0;52;52.5502474;13.5782789;14.0987439;15;15;15;15;15;15;0;0;33;3;1;0.148861646;6.717647059;85;571;0.29
Turkish Supermarket;Brunnenstraﬂe 116, 13355 Berlin;2.7;0;0;0;0;0;0;0;0;0;0;4;0;0;0;1;9;10;0;0;5;52.5416111;13.393043;3.005621131;0;0;0;0;0;0;0;0;2;2;0;1.25;0.8;5;4;0.01
REWE Markt;Bruno-Taut-Straﬂe 1, 12524 Berlin;4.1;26;22;3;6;4;6;3;4;0;1;1;1;0;0;0;691;15;0;0;32;52.4124711;13.5716441;17.50823961;16;16;16;16;16;16;0;1;7;0;0;0.097744361;10.23076923;52;532;0.27
EDEKA Brunsb¸tteler Damm;Brunsb¸tteler Damm 196, 13581 Berlin;4.1;5;0;0;0;0;0;0;5;0;1;2;0;1;0;0;892;20;0;0;26;52.5337678;13.1676624;14.35844246;15;15;15;15;15;15;0;0;20;2;0;0.104885057;9.534246575;73;696;0.06
REWE Markt;Brunsb¸tteler Damm 274, 13591 Berlin;3.7;18;14;1;6;2;4;1;4;0;1;2;0;1;0;0;726;15;0;0;80;52.5335602;13.1554446;15.17579147;0;0;0;0;0;0;0;0;38;33;3;0.304157549;3.287769784;139;457;0.21
Nah und Gut Zengin & Yaka;Buckower Damm 219, 12349 Berlin;3.9;20;20;2;6;3;7;2;0;0;1;3;0;0;1;0;188;15;0;0;10;52.4243333;13.4363247;10.97978576;12;12;12;12;12;12;0;0;6;2;1;0.183206107;5.458333333;24;131;0.28
Aldi Nord;Buckower Damm 50, 12349 Berlin;4.1;7;4;0;0;0;4;0;3;0;1;2;0;1;0;0;273;20;0;0;10;52.4402077;13.4340899;9.290772673;13;13;13;13;13;13;0;0;3;0;0;0.083333333;12;17;204;0.09
EDEKA H¸ntemann;Buntzelstraﬂe 14, 12526 Berlin;4.1;14;10;2;2;0;5;1;4;0;1;2;0;1;0;0;577;15;0;0;21;52.4089943;13.5721781;17.79327767;14;14;14;14;14;14;0;0;4;0;0;0.114606742;8.725490196;51;445;0.17
EDEKA Kitschun;Buschallee 88, 13088 Berlin;3.6;9;9;0;3;3;3;0;0;0;1;2;0;1;0;0;592;15;0;0;73;52.553828;13.475476;7.829795387;12.5;12.5;12.5;12.5;12.5;12.5;0;0;56;46;8;0.369047619;2.709677419;124;336;0.12
REWE Markt;Chausseestraﬂe 118-120, 10115 Berlin;4.1;15;11;2;4;0;5;0;4;0;1;2;0;1;0;0;1457;15;0;0;80;52.5295822;13.3839252;1.540115104;16;16;16;16;16;16;0;0;30;2;0;0.104845815;9.537815126;119;1135;0.16
EDEKA Clayallee;Clayallee 171-177, 14195 Berlin;4.2;11;6;0;3;0;3;0;5;0;1;2;0;1;0;0;1275;25;0;0;78;52.4522355;13.2706603;10.17246529;17;17;19;19;19;16;0;1;65;5;1;0.119885823;8.341269841;126;1051;0.1
EDEKA Center Brehm;Clayallee 328-334, 14169 Berlin;4.7;7;2;0;1;0;1;0;5;0;1;2;0;1;0;0;981;20;0;0;22;52.4377608;13.2625624;11.71911778;15;15;15;15;15;15;0;1;18;1;0;0.03402854;29.38709677;31;911;0.08
REWE Markt;Clayallee 336, 14169 Berlin;4;7;3;0;0;0;3;0;4;0;0;1;1;0;0;0;1179;25;0;0;72;52.4370895;13.2622953;11.78701044;16;16;16;16;16;16;0;0;3;0;0;0.142697882;7.0078125;128;897;0.07
EDEKA Focke;Danckelmannstraﬂe 57-60, 14059 Berlin;3.7;25;17;2;4;3;8;0;8;0;0;2;0;1;0;0;483;15;0;0;56;52.5176445;13.2905211;5.907812276;15;15;15;15;15;15;0;0;16;13;0;0.314381271;3.180851064;94;299;0.28
REWE Markt;Daumstraﬂe 90, 13599 Berlin;4.5;11;2;0;2;0;0;0;9;0;1;2;0;1;0;0;106;20;0;0;3;52.5545726;13.2261782;11.1106524;15;15;15;15;15;15;0;0;3;0;0;0.042553191;23.5;4;94;0.12
REWE Markt;Dolgenseestraﬂe 9 c-f, 10319 Berlin;4.3;22;13;3;4;2;4;0;9;0;1;2;0;1;0;0;466;20;0;0;21;52.493473;13.5075973;9.160210976;15;15;15;15;15;15;0;1;14;0;0;0.078282828;12.77419355;31;396;0.24
EDEKA Stepaniak;Dorfstraﬂe 65, 16356 Ahrensfelde;4.3;26;18;1;4;7;6;0;8;0;1;2;0;1;0;0;1438;20;0;0;64;52.5754535;13.5724281;14.73654054;14;14;14;14;14;14;0;0;28;0;0;0.088210348;11.33653846;104;1179;0.31
EDEKA Dˆrpfeldstraﬂe;Dˆrpfeldstraﬂe 46, 12489 Berlin;3.9;26;22;3;4;7;8;0;4;0;1;2;0;1;0;0;1316;20;0;0;104;52.4383455;13.5483317;14.46015377;17;17;19;19;19;16.5;0;0;15;6;0;0.18086225;5.529069767;172;951;0.24
EDEKA Zahl;Dovestraﬂe 3c, 10587 Berlin;3.7;25;25;4;6;7;8;0;0;0;1;2;0;1;0;0;663;15;0;0;104;52.5201067;13.3199661;3.934296245;15;15;15;15;15;15;0;0;6;5;0;0.36;2.777777778;153;425;0.28
EDEKA K¸ther;Drakestraﬂe 28-29, 12205 Berlin;3.9;8;4;0;4;0;0;0;4;0;1;2;0;1;0;0;545;20;0;0;44;52.4413773;13.2991146;9.89475856;14;14;14;14;14;14;0;0;14;4;0;0.17357513;5.76119403;67;386;0.1
Punjab Foods;Drontheimer Str. 32A, 13359 Berlin;4.1;6;1;0;0;0;1;0;5;0;0;4;0;0;0;1;1794;25;0;0;114;52.5587382;13.3750173;4.730480921;12;12;12;12;12;12;0;0;9;1;0;0.142643764;7.010471204;191;1339;0.08
Nah und Gut Janoschek;Ehrenfelder Pl. 3, 12524 Berlin;3.8;14;11;3;3;3;2;0;3;0;1;3;0;0;1;0;251;15;0;0;27;52.4018647;13.5429761;16.96706722;12;12;12;12;12;20;0;0;13;11;2;0.215568862;4.638888889;36;167;0.18
REWE Markt;Eichenauer Weg 61, 12355 Berlin;4.2;6;0;0;0;0;0;0;6;0;1;2;0;1;0;0;1435;20;0;0;87;52.4128566;13.4932549;13.92671412;15;15;15;15;15;15;0;0;46;5;1;0.11349957;8.810606061;132;1163;0.07
Nah und Gut ÷zbek & Batur oHG;Eichhorster Weg 25, 13435 Berlin;3.9;20;17;3;4;3;0;7;3;0;0;2;0;1;0;0;213;15;0;0;23;52.5987307;13.3428317;9.477486797;15;15;15;15;15;15;0;0;13;4;1;0.2;5;29;145;0.22
EDEKA Elstaler Straﬂe;Elstaler Str. 6, 13583 Berlin;3.8;21;12;4;3;2;0;3;9;0;1;2;0;1;0;0;551;15;0;0;55;52.5373882;13.1855145;13.22664817;15;15;15;15;15;15;0;0;46;36;8;0.266288952;3.755319149;94;353;0.23
Oriental Market;Emser Str. 103/105, 12051 Berlin;4.4;1;1;1;0;0;0;0;0;0;0;3;0;0;1;0;31;10;0;0;1;52.4681299;13.4299727;6.424561051;14;14;14;14;14;14;0;0;1;0;0;0.074074074;13.5;2;27;0.01
REWE Markt;Ernst-Barlach-Straﬂe 19, 13059 Berlin;4;12;4;0;1;1;0;2;8;0;1;2;0;1;0;0;821;20;0;0;78;52.5749242;13.5096236;11.06252128;15;15;15;15;15;15;0;0;2;0;0;0.182258065;5.486725664;113;620;0.13
REWE Markt;Eschengraben 47, 13189 Berlin;3.9;19;10;3;3;0;0;4;9;0;1;2;0;1;0;0;546;20;0;0;44;52.5565068;13.424549;5.488056764;15;15;15;15;15;15;0;0;27;13;2;0.205729167;4.860759494;79;384;0.21
EDEKA Ulrich;Falkenpl. 1-3, 13505 Berlin;3.7;4;0;0;0;0;0;0;4;0;1;2;0;1;0;0;260;15;0;0;39;52.5847783;13.2267103;12.75198923;14;14;14;14;14;14;0;0;9;8;1;0.325581395;3.071428571;56;172;0.05
EDEKA Seitz;Falkenseer Chaussee 239, 13583 Berlin;4.3;5;0;0;0;0;0;0;5;0;1;2;0;1;0;0;1701;20;0;0;69;52.5481636;13.1771335;14.03832424;15;15;15;15;15;15;0;0;62;2;0;0.084577114;11.82352941;119;1407;0.06
Nah und Gut Kauert;Falkenseer Chaussee 266, 13583 Berlin;4;14;9;3;3;0;3;0;5;0;0;2;0;1;0;0;324;15;0;0;28;52.5470428;13.1863403;13.40378805;13;13;13;13;13;13;0;0;3;1;0;0.202643172;4.934782609;46;227;0.18
EDEKA Zahl;Fischerh¸ttenstraﬂe 68, 14163 Berlin;3.3;23;19;5;6;6;0;2;4;0;0;2;0;1;0;0;179;15;0;0;37;52.4422244;13.2404359;12.43241777;15;15;15;15;15;15;0;0;27;23;2;0.571428571;1.75;56;98;0.26
EDEKA Stadie;Flankenschanze 32, 13585 Berlin;4.2;14;6;2;3;0;0;1;8;0;1;1;1;0;0;0;599;15;0;0;25;52.5426525;13.1972475;12.56860811;14.5;14.5;14.5;14.5;14.5;14.5;0;0;3;0;0;0.093877551;10.65217391;46;490;0.16
Ba?kent Supermarket;Fˆhrer Str. 13, 13353 Berlin;4;2;2;2;0;0;0;0;0;0;0;2;0;1;0;0;31;10;0;0;5;52.54173;13.34958;3.414247589;13;13;13;13;13;13;0;0;3;1;0;0.2;5;5;25;0.03
EDEKA Ring Center;Frankfurter Allee 111, 10247 Berlin;3.8;17;10;4;4;2;0;0;7;0;1;3;0;0;1;0;578;15;0;0;59;52.5144001;13.4739917;6.526190923;13;13;13;13;13;13;0;1;22;8;5;0.223880597;4.466666667;90;402;0.22
REWE Markt;Frankfurter Allee 144, 10365 Berlin;3.9;15;6;3;2;1;0;0;9;0;1;2;0;1;0;0;909;15;0;0;72;52.5121372;13.4819051;7.074126703;17;17;19;19;19;16.5;0;0;35;20;7;0.191290824;5.227642276;123;643;0.14
EDEKA Scheuner;Franz-Jacob-Straﬂe 4, 10369 Berlin;3.7;12;9;6;3;0;0;0;3;0;0;2;0;1;0;0;528;15;0;0;67;52.5253669;13.4656951;6.045393537;14;14;14;14;14;14;0;0;26;20;6;0.30952381;3.230769231;104;336;0.14
EDEKA Brabanski;Fregestraﬂe 6, 12159 Berlin;4.2;11;8;4;1;1;0;2;3;0;1;2;0;1;0;0;317;15;0;0;19;52.4713159;13.3370897;5.71188315;13;13;13;13;13;13;0;0;6;1;0;0.130081301;7.6875;32;246;0.14
NP-Markt Schˆneiche bei Berlin;Friedrich-Ebert-Straﬂe 3, 15566 Schˆneiche bei Berlin;4.1;17;13;2;3;3;0;5;4;0;1;2;0;1;0;0;220;15;0;0;10;52.4735114;13.6843409;21.32050702;13;13;13;13;13;13;0;0;4;0;0;0.124223602;8.05;20;161;0.22
EDEKA City Markt;Friedrichstraﬂe 142, 10117 Berlin;4;7;5;0;2;3;0;0;2;0;1;1;1;0;0;0;2491;10;0;1;174;52.5200014;13.3880047;0.811754232;16;16;16;16;16;14;14;1;160;16;6;0.16161059;6.187713311;293;1813;0.07
REWE Markt;Fritz-Lang-Straﬂe 3, 12627 Berlin;4.3;20;13;4;4;2;0;3;7;0;0;2;0;1;0;0;401;15;0;0;20;52.53716;13.60265;15.41102334;15;15;15;15;15;15;0;0;5;0;0;0.102639296;9.742857143;35;341;0.22
EDEKA Vaupel;Fuldastraﬂe 43-44, 12045 Berlin;3.5;10;5;2;3;0;0;0;5;0;0;3;0;0;1;0;228;15;0;0;33;52.4853161;13.4376751;5.328525543;12;12;12;12;12;12;0;0;7;6;0;0.440944882;2.267857143;56;127;0.14
EDEKA F¸rstenberger Straﬂe;F¸rstenberger Str. 8, 10435 Berlin;3.8;12;4;2;2;0;0;0;8;0;0;2;0;1;0;0;505;15;0;0;35;52.5375052;13.405255;3.011139402;15;15;15;15;15;15;0;0;27;22;3;0.245508982;4.073170732;82;334;0.13
EDEKA Schmitt;Garb·typl. 1, 13187 Berlin;4;12;10;4;5;1;0;0;2;0;0;1;1;0;0;0;1074;15;0;0;68;52.567293;13.410796;6.105233519;17;17;17;17;17;17;0;0;34;5;0;0.130381304;7.669811321;106;813;0.12
EDEKA Salpius;Gartenfelder Str. 86, 13599 Berlin;4.1;18;9;3;4;0;0;2;9;0;1;2;0;1;0;0;612;15;0;0;29;52.5435811;13.2406087;9.769153649;15;15;15;15;15;15;0;0;9;1;0;0.109207709;9.156862745;51;467;0.2
REWE Markt;Genslerstraﬂe 34, 13055 Berlin;4;9;3;2;1;0;0;0;6;0;1;2;0;1;0;0;630;15;0;0;39;52.535419;13.4965123;8.323972986;13;13;13;13;13;13;0;1;7;1;0;0.130879346;7.640625;64;489;0.12
EDEKA Genthiner Straﬂe Berlin;Genthiner Str. 42, 10785 Berlin;4.2;17;13;5;4;2;0;2;4;0;1;2;0;1;0;0;452;15;0;0;25;52.5020401;13.3584194;2.053825001;15;15;15;15;15;15;0;0;21;2;0;0.08719346;11.46875;32;367;0.19
REWE Markt;Germaniastraﬂe 12-13, 12099 Berlin;4;26;18;7;5;0;0;6;8;0;1;1;1;0;0;0;1106;20;0;0;68;52.464686;13.3951119;5.862823989;16;16;16;16;16;16;0;1;9;1;0;0.139255702;7.181034483;116;833;0.27
Lidl;Gervinusstraﬂe 30, 10629 Berlin;4.1;9;0;0;0;0;0;0;9;0;1;2;0;1;0;0;1341;20;0;0;75;52.5029524;13.2985104;5.566731387;15;15;15;15;15;15;0;0;3;0;0;0.111969112;8.931034483;116;1036;0.1
REWE Markt;Goerzallee 82, 12205 Berlin;4;7;2;0;0;1;0;1;5;0;1;2;0;1;0;0;1022;20;0;0;64;52.42628;13.3025028;11.24139847;14.8;14.8;14.8;14.8;14.8;14.8;0;0;12;1;0;0.137055838;7.296296296;108;788;0.08
EDEKA Kruse;Goltzstraﬂe 1, 12307 Berlin;4.1;6;2;0;0;0;0;2;4;0;1;2;0;1;0;0;1032;20;0;0;45;52.3873548;13.4085066;14.50267159;14;14;14;14;14;14;0;0;15;1;0;0.106516291;9.388235294;85;798;0.07
REWE Markt;Gorkistraﬂe 11-21, 13507 Berlin;4.1;7;1;1;0;0;0;0;6;0;1;2;0;1;0;0;300;15;0;0;22;52.5905723;13.2866392;10.31484902;15;15;15;15;15;15;0;0;5;0;0;0.14957265;6.685714286;35;234;0.08
EDEKA Tatschke;Gothaer Str. 45, 12629 Berlin;4.2;13;5;0;2;0;0;3;8;0;1;2;0;1;0;0;938;20;0;0;53;52.5382788;13.5901546;14.5952112;14;14;14;14;14;14;0;0;27;3;0;0.112751678;8.869047619;84;745;0.16
REWE Markt;Gotlindestraﬂe 40a, 10365 Berlin;4.2;20;11;4;2;2;0;3;9;0;1;1;1;0;0;0;800;20;0;0;42;52.5185414;13.4969275;8.080159749;16;16;16;16;16;16;0;0;21;1;0;0.115444618;8.662162162;74;641;0.21
Spati kanat;Gotzkowskystraﬂe 18B, 10555 Berlin;3.7;7;2;0;0;0;0;2;4;1;1;0;0;0;0;0;3;10;1;1;1;52.5241242;13.32957;3.375451073;0;14;0;14;0;0;0;0;0;0;0;0.5;2;1;2;0.25
Nah und Gut Hˆtzel;Grainauer Str. 1, 10777 Berlin;4;4;1;1;0;0;0;0;3;0;0;3;0;0;1;0;194;10;0;0;8;52.4978447;13.3349219;3.551340932;12;12;12;12;12;12;0;0;5;1;0;0.152173913;6.571428571;21;138;0.06
REWE Markt;Greifswalder Str. 154-156, 10409 Berlin;4.1;17;10;3;5;2;0;0;7;0;0;1;1;0;0;0;725;20;0;0;40;52.5438127;13.4413651;5.28993392;16;16;16;16;16;16;0;0;5;0;0;0.118397086;8.446153846;65;549;0.18
Al Kaiser Supermarkt;Greifswalder Str. 162, 10409 Berlin;4.4;4;0;0;0;0;0;0;4;0;0;4;0;0;0;1;128;10;0;0;8;52.542542;13.439916;5.128368232;12;12;12;12;12;12;0;0;1;0;0;0.085714286;11.66666667;9;105;0.06
EDEKA Greifswalder Straﬂe;Greifswalder Str. 86, 10409 Berlin;3.9;30;20;4;8;4;0;4;10;0;1;2;0;1;0;0;1591;20;0;0;144;52.5413873;13.439795;5.04940151;17;17;19;19;19;16.5;0;0;9;3;1;0.195729537;5.109090909;220;1124;0.28
REWE Markt;Grellstraﬂe 75, 10409 Berlin;4;17;8;3;2;1;0;2;9;0;1;2;0;1;0;0;655;15;0;0;39;52.5452896;13.4300632;4.79629802;17;17;19;19;19;16.5;0;0;14;2;1;0.153061224;6.533333333;75;490;0.16
Aldi Nord;Grenzallee 4 L, 12057 Berlin;4;10;4;2;0;0;2;0;6;0;1;2;0;1;0;0;393;15;0;0;24;52.4703169;13.4618012;7.659142305;14;14;14;14;14;14;0;0;4;1;0;0.163763066;6.106382979;47;287;0.12
EDEKA Center Neukˆlln;Grenzallee 4-6, 12057 Berlin;4.1;7;0;0;0;0;0;0;7;0;1;2;0;1;0;0;739;15;0;0;43;52.4701473;13.4623876;7.701349397;14;14;14;14;14;14;0;0;40;3;1;0.104273504;9.590163934;61;585;0.08
REWE Markt;Groﬂbeerenstraﬂe 62-64, 12107 Berlin;4.1;7;0;0;0;0;0;0;7;0;1;1;1;0;0;0;1129;20;0;0;67;52.4343628;13.377136;9.118505727;18;18;20;20;20;17.5;0;0;15;2;1;0.131147541;7.625;112;854;0.06
EDEKA Hadlichstraﬂe;Hadlichstraﬂe 19, 13187 Berlin;3.8;6;6;0;3;0;3;0;0;0;1;2;0;1;0;0;319;15;0;0;31;52.5715186;13.4178492;6.72347605;14;14;14;14;14;14;0;0;14;11;3;0.215246637;4.645833333;48;223;0.07
EDEKA Gˆrse & Meichsner;Handjerystraﬂe 98, 12159 Berlin;3.7;14;6;0;4;0;2;0;8;0;0;2;0;1;0;0;159;15;0;0;18;52.4770402;13.3331105;5.311270113;15;15;15;15;15;15;0;0;16;14;2;0.346153846;2.888888889;36;104;0.16
EDEKA Center Stepaniak;Hansastraﬂe 236, 13051 Berlin;4.2;8;3;0;0;0;2;1;5;0;1;2;0;1;0;0;1025;15;0;0;54;52.5608938;13.4993655;9.61900285;14;14;14;14;14;14;0;0;2;0;0;0.104066986;9.609195402;87;836;0.1
Nah und Gut Cetin;Haselhorster Damm 27, 13599 Berlin;3.8;9;9;0;3;2;3;1;0;0;0;2;0;1;0;0;160;15;0;0;17;52.5447941;13.2378466;9.989057336;13;13;13;13;13;13;0;0;12;9;3;0.27184466;3.678571429;28;103;0.12
EDEKA Fiebig;Hasenheide 107-108, 10967 Berlin;4;7;0;0;0;0;0;0;7;0;1;3;0;0;1;0;405;20;0;0;34;52.4865219;13.4218239;4.461925728;13;13;13;13;13;13;0;0;11;2;1;0.156549521;6.387755102;49;313;0.09
REWE Markt;Hauptstraﬂe 141-144, 10827 Berlin;4;18;8;1;4;0;3;0;10;0;1;2;0;1;0;0;802;20;0;0;61;52.4856059;13.3560587;3.715828803;17;17;19;19;19;16.5;0;0;34;4;1;0.177664975;5.628571429;105;591;0.17
REWE Markt;Hauptstraﬂe 65-70, 13127 Berlin;4.1;12;8;0;1;0;7;0;4;0;1;2;0;1;0;0;614;20;0;0;35;52.6040981;13.4323615;10.45276551;15;15;15;15;15;15;0;0;15;2;0;0.128964059;7.754098361;61;473;0.13
REWE Markt;Havemannstraﬂe 12A, 12689 Berlin;4.1;11;8;0;3;2;3;0;3;0;1;2;0;1;0;0;751;20;0;0;47;52.5688367;13.568572;14.18501184;15;15;15;15;15;15;0;0;15;1;0;0.161061947;6.208791209;91;565;0.12
EDEKA Busack;Heckerdamm 225-231, 13627 Berlin;3.7;22;18;2;5;4;7;0;4;0;1;2;0;1;0;0;648;15;0;0;70;52.53924;13.2993363;5.890996896;14;14;14;14;14;14;0;0;34;30;4;0.259615385;3.851851852;108;416;0.26
EDEKA am S¸dkreuz;Hedwig-Dohm-Straﬂe 4, 10829 Berlin;4.3;9;5;0;2;0;3;0;4;0;1;2;0;1;0;0;222;20;0;0;12;52.4758377;13.3622159;4.622224488;14;14;14;14;14;14;0;0;1;0;0;0.079787234;12.53333333;15;188;0.11
EDEKA Center Heerstraﬂe;Heerstraﬂe 284, 13595 Berlin;4.1;7;0;0;0;0;0;0;7;0;1;2;0;1;0;0;976;20;0;0;50;52.5154329;13.1868171;12.93150566;14.5;14.5;14.5;14.5;14.5;14.5;0;0;1;0;0;0.135458167;7.382352941;102;753;0.08
REWE Markt;Heerstraﬂe 560, 13591 Berlin;4.2;9;3;0;1;0;2;0;6;0;1;2;0;1;0;0;1282;20;0;0;69;52.5249244;13.1418743;16.00296975;15;15;15;15;15;15;0;0;23;2;1;0.098550725;10.14705882;102;1035;0.1
REWE Markt;Helene-Weigel-Platz 1-2, 12681 Berlin;3.8;33;31;4;8;8;8;3;2;0;1;2;0;1;0;0;657;10;0;0;82;52.5276676;13.5388799;10.99036495;15;15;15;15;15;15;0;0;79;44;0;0.275626424;3.628099174;121;439;0.37
EDEKA Friedrich;Hellersdorfer Str. 83, 12619 Berlin;4.1;10;7;0;3;1;3;0;3;0;1;2;0;1;0;0;533;10;0;0;29;52.5233383;13.5861748;14.14294663;14;14;14;14;14;14;0;1;15;1;0;0.129268293;7.735849057;53;410;0.12
REWE Markt;Hermann-Hesse-Straﬂe 14, 13156 Berlin;4.3;15;6;0;2;0;3;1;9;0;1;2;0;1;0;0;1514;20;0;0;73;52.5812504;13.4006962;7.398582967;16.5;16.5;16.5;16.5;16.5;16.5;0;0;67;1;0;0.094444444;10.58823529;119;1260;0.15
REWE Markt;Hermannstraﬂe 158, 12051 Berlin;4;21;14;1;5;3;5;0;7;0;1;3;0;0;1;0;845;15;0;0;60;52.4672976;13.4330679;6.61871779;16;16;18;18;18;15.5;0;1;50;9;2;0.168026101;5.951456311;103;613;0.21
EDEKA Herrfurthplatz;Herrfurthpl. 12, 12049 Berlin;3.5;5;1;0;1;0;0;0;4;0;0;2;0;1;0;0;267;15;0;0;45;52.4769816;13.4230019;5.343917889;14;14;14;14;14;14;0;0;22;19;0;0.49044586;2.038961039;77;157;0.06
Aldi Nord;Hildburghauser Str. 248, 12207 Berlin;4.2;5;1;0;0;0;1;0;4;0;1;2;0;1;0;0;730;25;0;0;31;52.4198135;13.3144357;11.56352017;14;14;14;14;14;14;0;0;3;0;0;0.08907563;11.22641509;53;595;0.06
EDEKA Colombino;Hildburghauser Str. 244-252, 12207 Berlin;4;4;0;0;0;0;0;0;4;0;1;3;0;0;1;0;617;20;0;0;42;52.420773;13.3139693;11.47625972;12;12;12;12;12;12;0;0;3;0;0;0.144989339;6.897058824;68;469;0.06
REWE Markt;Hildburghauser Str. 29, 12279 Berlin;4;18;11;0;3;3;5;0;7;0;1;1;1;0;0;0;846;15;0;0;50;52.4128532;13.3546457;11.61858945;16;16;16;16;16;16;0;0;34;4;1;0.152459016;6.559139785;93;610;0.19
EDEKA Christ;Hildburghauser Str. 52, 12279 Berlin;4;4;0;0;0;0;0;0;4;0;1;2;0;1;0;0;1210;20;0;0;85;52.4153588;13.3479259;11.41402424;15;15;15;15;15;15;0;0;3;1;0;0.156692057;6.381944444;144;919;0.04
EDEKA Hindenburgdamm;Hindenburgdamm 59A, 12203 Berlin;3.5;5;2;0;1;0;1;0;3;0;0;3;0;0;1;0;330;15;0;0;52;52.4486331;13.3157293;8.622734159;13;13;13;13;13;13;0;0;31;29;0;0.454081633;2.202247191;89;196;0.06
EDEKA R¸bel;Hohefeldstraﬂe 19A, 13467 Berlin;4.1;4;0;0;0;0;0;0;4;0;1;2;0;1;0;0;649;25;0;0;31;52.6224793;13.3031421;12.85397369;15;15;15;15;15;15;0;0;14;1;0;0.122529644;8.161290323;62;506;0.04
REWE Markt;Hˆnower Str. 80, 12623 Berlin;4.2;15;9;0;4;1;4;0;6;0;1;2;0;1;0;0;1060;20;0;0;71;52.5116329;13.6133886;15.97492454;15;15;15;15;15;15;0;0;33;3;1;0.123674912;8.085714286;105;849;0.17
REWE Markt;Hubertusdamm 53-59, 13125 Berlin;3.9;23;16;0;3;4;7;2;7;0;1;2;0;1;0;0;537;20;0;0;38;52.6165768;13.4719186;12.85728761;15;15;15;15;15;15;0;0;32;16;2;0.17989418;5.558823529;68;378;0.26
EDEKA Brehm;Hultschiner Damm 75-81, 12623 Berlin;4.4;8;5;0;0;0;3;2;3;0;1;2;0;1;0;0;743;20;0;0;25;52.4820894;13.6006656;15.58157574;13;13;13;13;14;13;0;0;15;0;0;0.073506891;13.60416667;48;653;0.1
EDEKA Berlin Invalidenstraﬂe;Invalidenstraﬂe 74, 10557 Berlin;4.3;8;8;0;4;2;2;0;0;0;1;2;0;1;0;0;511;15;0;0;27;52.5272801;13.3729902;1.266004401;14;14;14;14;14;14;0;0;9;0;0;0.085648148;11.67567568;37;432;0.1
EDEKA Semmler;Joachim-Gottschalk-Weg 23, 12353 Berlin;3;1;1;0;0;1;0;0;0;0;1;2;0;1;0;0;2;10;0;0;1;52.4229741;13.4755645;12.32532644;15;15;15;15;15;15;0;1;0;0;0;1;1;1;1;0.01
EDEKA Johannisthaler;Johannisthaler Ch 365, 12351 Berlin;4.1;8;3;0;1;0;0;2;5;0;1;2;0;1;0;0;947;20;0;0;50;52.4266599;13.4485116;11.07128788;15;15;15;15;15;15;0;0;22;2;1;0.136551724;7.323232323;99;725;0.09
EDEKA Urbschat;Jungfernheideweg 2, 13629 Berlin;3.8;35;29;3;7;8;6;5;6;0;1;2;0;1;0;0;757;15;0;0;65;52.5371467;13.2723302;7.505220697;15;15;15;15;15;15;0;0;62;37;14;0.221782178;4.508928571;112;505;0.39
REWE Markt;Kaiserin-Augusta-Straﬂe 55, 12103 Berlin;3.9;20;14;0;6;4;2;2;6;0;1;2;0;1;0;0;439;15;0;0;30;52.4599965;13.3749491;6.267676508;15;15;15;15;15;15;0;0;24;7;3;0.161904762;6.176470588;51;315;0.22
EDEKA Hadersbeck;Kaiser-Wilhelm-Straﬂe 64, 12247 Berlin;3.8;11;6;0;5;1;0;0;5;0;1;2;0;1;0;0;693;20;0;0;80;52.4352196;13.3432191;9.321086797;14;14;14;14;14;14;0;0;2;2;0;0.256900212;3.892561983;121;471;0.13
Aldi Nord;Karl-Marx-Straﬂe 92-98, 12043 Berlin;3.9;13;11;2;2;5;2;0;2;0;1;2;0;1;0;0;251;20;0;0;16;52.4798096;13.4361357;5.670885524;14;14;14;14;14;14;0;1;16;9;3;0.167567568;5.967741935;31;185;0.16
REWE Markt;Karl-Marx-Straﬂe 92-98, 12043 Berlin;4.1;20;12;0;5;5;2;0;8;0;1;2;0;1;0;0;575;20;0;0;36;52.4798766;13.4358774;5.65332578;17;17;19;19;19;16.5;0;1;29;2;1;0.127314815;7.854545455;55;432;0.19
Al Baraka Supermarkt;Karl-Marx-Straﬂe 100, 12043 Berlin;4.3;5;0;0;0;0;0;0;5;0;0;4;0;0;0;1;322;20;0;0;21;52.4794369;13.4369056;5.737035876;11;11;11;11;11;11;0;0;12;0;0;0.117870722;8.483870968;31;263;0.08
NP-Markt Berlin - Hellersdorf;Kastanienallee 8, 12627 Berlin;3.6;7;6;0;3;3;0;0;1;0;0;2;0;1;0;0;554;15;0;0;69;52.5366541;13.6014462;15.32207998;13;13;13;13;13;13;0;0;57;50;4;0.363363363;2.752066116;121;333;0.09
EDEKA Woolard;Kaulsdorfer Str. 94, 12621 Berlin;4.3;14;9;0;2;4;1;2;5;0;1;2;0;1;0;0;466;15;0;0;18;52.4752303;13.5687806;13.73234442;14.5;14.5;14.5;14.5;14.5;14.5;0;0;10;0;0;0.077694236;12.87096774;31;399;0.16
Nah und Gut L¸dtke;Keilerstraﬂe 21, 13503 Berlin;4.1;20;20;0;7;6;7;0;0;0;0;2;0;1;0;0;95;15;0;0;8;52.6097559;13.2482211;13.60382315;12;12;12;12;12;21;0;0;3;0;0;0.133333333;7.5;10;75;0.25
REWE Markt;Kiefholzstraﬂe 50, 12435 Berlin;4;16;7;0;2;3;1;1;9;0;1;2;0;1;0;0;817;20;0;0;70;52.485533;13.4570429;6.373189598;15;15;15;15;15;15;0;0;56;9;3;0.163636364;6.111111111;99;605;0.18
EDEKA Felix;Kladower Damm 366B, 14089 Berlin;4.2;4;0;0;0;0;0;0;4;0;1;2;0;1;0;0;433;15;0;0;16;52.4550189;13.1439473;17.2510663;14;14;14;14;14;14;0;0;16;1;0;0.080110497;12.48275862;29;362;0.05
EDEKA Center Spandau Arcaden;Klosterstraﬂe 3, 13581 Berlin;4.2;6;0;0;0;0;0;0;6;0;1;2;0;1;0;0;552;15;0;0;42;52.5339918;13.1953587;12.50641336;15;15;15;15;15;15;0;1;29;2;0;0.151029748;6.621212121;66;437;0.07
EDEKA Knesebeckstraﬂe;Knesebeckstraﬂe 56-58, 10719 Berlin;4.2;9;8;0;4;2;2;0;1;0;1;3;0;0;1;0;1136;20;0;0;50;52.5004541;13.3220817;4.159853507;16;16;18;18;18;15.5;0;0;7;1;0;0.095652174;10.45454545;88;920;0.09
Lidl;Kniprodestraﬂe 26, 10407 Berlin;4.2;30;25;0;8;9;8;0;5;0;1;2;0;1;0;0;933;20;0;0;46;52.5343534;13.4456724;5.02404378;14;14;14;14;14;14;0;0;25;2;1;0.094594595;10.57142857;70;740;0.36
EDEKA Hennig;Kollwitzstraﬂe 68, 10435 Berlin;3.3;6;0;0;0;0;0;0;6;0;0;2;0;1;0;0;299;15;0;0;72;52.5363465;13.4184534;3.550898312;14;14;14;14;14;14;0;0;31;24;3;0.668831169;1.495145631;103;154;0.07
EDEKA Kˆnigin-Elisabeth-Straﬂe Getr.;Kˆnigin-Elisabeth-Straﬂe 9A, 14059 Berlin;4;25;19;0;8;7;0;4;6;0;1;2;0;1;0;0;868;20;0;0;68;52.511648;13.2789302;6.711273582;15;15;15;15;15;15;0;0;37;5;0;0.138138138;7.239130435;92;666;0.28
REWE Markt;Kˆnigin-Luise-Straﬂe 37, 14195 Berlin;3.8;2;2;0;0;2;0;0;0;0;1;1;1;0;0;0;452;15;0;0;39;52.458493;13.292476;8.645879199;16;16;16;16;16;16;0;0;33;28;5;0.236486486;4.228571429;70;296;0.02
EDEKA Kˆbernik;Kˆnigstraﬂe 14, 14109 Berlin;4.1;36;28;0;8;9;5;6;8;0;1;2;0;1;0;0;473;15;0;0;27;52.4198686;13.1599118;18.25710002;15;15;15;15;15;15;0;0;23;2;1;0.12195122;8.2;45;369;0.4
REWE Markt;Konrad-Wolf-Straﬂe 24, 13055 Berlin;4.1;33;23;2;4;6;4;7;10;0;1;2;0;1;0;0;1518;20;0;0;93;52.5438372;13.490571;8.236255629;15;15;15;15;15;15;0;0;82;7;2;0.128463476;7.784313725;153;1191;0.37
REWE Markt;Kˆpenicker Str. 192-198, 12683 Berlin;4.2;6;0;0;0;0;0;0;6;0;1;2;0;1;0;0;1000;15;0;0;34;52.4866417;13.5599316;12.7816243;15;15;15;15;15;15;0;0;34;3;0;0.075334143;13.27419355;62;823;0.07
EDEKA Mercan;Kˆrnerstraﬂe 30, 12157 Berlin;4.2;15;8;0;3;0;0;5;7;0;1;2;0;1;0;0;719;20;0;0;42;52.4623879;13.3330544;6.718923966;15;15;15;15;15;15;0;0;17;2;0;0.114529915;8.731343284;67;585;0.17
REWE Markt;Kˆthener Str. 1-3, 12689 Berlin;4.2;18;11;0;3;4;2;2;7;0;1;2;0;1;0;0;763;15;0;0;61;52.5685338;13.5567579;13.44585453;15;15;15;15;15;15;0;0;51;5;1;0.140961857;7.094117647;85;603;0.2
EDEKA Fiebig;Kottbusser Damm 80, 10967 Berlin;4.1;11;4;0;2;2;0;0;7;0;1;3;0;0;1;0;146;15;0;0;8;52.4917027;13.4233198;4.127511489;12;12;12;12;12;12;0;0;2;0;0;0.111111111;9;12;108;0.15
EDEKA Kruppa;Kottmeierstraﬂe 3, 12459 Berlin;4;16;9;0;3;3;1;2;7;0;1;2;0;1;0;0;786;20;0;0;54;52.4631642;13.5256438;11.64092968;14;14;14;14;14;14;0;0;22;5;0;0.153061224;6.533333333;90;588;0.19
Nah und Gut Reiche;Kreuznacher Str. 68, 14197 Berlin;3.9;7;7;0;3;3;1;0;0;0;0;3;0;0;1;0;169;15;0;0;15;52.4674521;13.3110008;7.06958495;12;12;12;12;12;12;0;0;6;3;1;0.196581197;5.086956522;23;117;0.1
EDEKA Schmitt;Kurf¸rstendamm 129d, 10711 Berlin;4.1;9;7;0;4;3;0;0;2;0;1;1;1;0;0;0;302;15;0;0;22;52.4968378;13.2903584;6.301400823;17;17;17;17;17;17;0;0;17;1;0;0.167381974;5.974358974;39;233;0.09
REWE Markt;Kurf¸rstenstraﬂe 46, 10785 Berlin;4.5;14;6;0;3;3;0;0;8;0;1;2;0;1;0;0;288;20;0;0;6;52.50109;13.35869;2.125332789;15;15;15;15;15;15;0;0;6;0;0;0.046875;21.33333333;12;256;0.16
REWE Markt;Ladiusstraﬂe 26, 14165 Berlin;4;17;11;0;5;3;3;0;6;0;1;1;1;0;0;0;718;20;0;0;49;52.4112698;13.2625697;14.05744931;16;16;16;16;16;16;0;0;24;4;1;0.155722326;6.421686747;83;533;0.18
REWE Markt;Landsberger Allee 117, 10407 Berlin;4.1;9;8;0;4;3;1;0;1;0;1;2;0;1;0;0;1417;15;0;0;60;52.5288656;13.4560194;5.486518296;15;15;15;15;15;15;0;0;57;5;0;0.122467772;8.165413534;133;1086;0.1
ALDI Nord;Landsberger Allee 494, 12685 Berlin;4.1;24;15;0;4;4;5;2;9;0;1;2;0;1;0;0;736;20;0;0;51;52.5438491;13.565112;13.05731317;14;14;14;14;14;14;0;1;33;2;1;0.1271777;7.863013699;73;574;0.29
REWE Markt;Lankwitzer Str. 19-24, 12209 Berlin;4.1;6;2;0;0;2;0;0;4;0;1;2;0;1;0;0;843;15;0;0;42;52.4293333;13.3297707;10.20950909;15;15;15;15;15;15;0;1;32;2;1;0.10075188;9.925373134;67;665;0.07
EDEKA Leipziger Platz;Leipziger Pl. 12/13, 10117 Berlin;4.1;2;1;0;0;1;0;0;1;0;1;4;0;0;0;1;553;15;0;0;28;52.5106958;13.3812338;0.665519345;11;11;11;11;11;11;0;1;10;1;0;0.109839817;9.104166667;48;437;0.03
Nah und Gut A.A.;Leonhardtstraﬂe 22, 14057 Berlin;4.5;4;1;0;1;0;0;0;3;0;0;1;1;0;0;0;27;10;0;0;1;52.5050146;13.2972293;5.594448292;16;16;16;16;16;16;0;0;0;0;0;0.086956522;11.5;2;23;0.04
NP-Markt Teltow - Seehof;Lichterfelder Allee 165, 14513 Teltow;3.8;22;15;0;6;7;1;1;7;0;0;2;0;1;0;0;468;15;0;0;31;52.4112107;13.2980478;12.88319054;14;14;14;14;14;14;0;0;14;10;2;0.226973684;4.405797101;69;304;0.26
REWE Markt;Litfaﬂ-Platz 4, 10178 Berlin;3.9;10;4;0;2;2;0;0;6;0;1;2;0;1;0;0;1296;15;0;0;78;52.5221378;13.4034721;1.86348847;17;17;19;19;19;16.5;0;1;68;25;0;0.153930131;6.496453901;141;916;0.09
REWE Markt;Ludolfingerpl. 1, 13465 Berlin;4;20;11;0;3;4;1;3;9;0;1;1;1;0;0;0;298;20;0;0;20;52.6323977;13.289229;14.24523569;16;16;16;16;16;16;0;1;1;0;0;0.128318584;7.793103448;29;226;0.21
EDEKA Erler;Ludolfingerpl. 6, 13465 Berlin;3.7;6;1;0;0;0;1;0;5;0;1;2;0;1;0;0;144;15;0;0;17;52.6328616;13.2870644;14.35404469;13;13;13;13;13;13;0;1;6;5;0;0.257731959;3.88;25;97;0.08
Lidl;Luisenstraﬂe 52, 10117 Berlin;4.1;7;7;1;2;4;0;0;0;0;1;2;0;1;0;0;1257;15;0;0;45;52.5243551;13.3795426;0.908053365;14;14;14;14;14;14;0;1;5;0;0;0.094165814;10.61956522;92;977;0.08
V Vollack;M‰dewalder Weg 45, 12621 Berlin;4.5;9;7;0;5;2;0;0;2;0;0;2;0;1;0;0;162;15;0;0;5;52.509243;13.5874686;14.23253297;12;12;12;12;12;12;0;0;1;0;0;0.056737589;17.625;8;141;0.13
EDEKA Brehm;Mahlsdorfer Str. 34-38, 12555 Berlin;4.4;9;4;0;0;2;0;2;5;0;1;2;0;1;0;0;471;20;0;0;14;52.4657905;13.5850574;15.13653057;14;14;14;14;14;14;0;0;6;0;0;0.070048309;14.27586207;29;414;0.11
PENNY;Mahlsdorfer Str. 97e, 12555 Berlin;4;9;9;0;3;3;1;2;0;0;1;2;0;1;0;0;489;15;0;0;25;52.4623591;13.5819109;15.08706051;14;14;14;14;14;14;0;0;1;0;0;0.128415301;7.787234043;47;366;0.11
REWE Markt;Marchwitzastraﬂe 29, 12681 Berlin;3.9;17;13;3;4;4;2;0;4;0;1;2;0;1;0;0;274;20;0;0;20;52.523133;13.5444591;11.32119676;15;15;15;15;15;15;0;0;17;6;1;0.192893401;5.184210526;38;197;0.19
EDEKA Marienburger Straﬂe;Marienburger Str. 14A, 10405 Berlin;3.8;7;2;0;0;2;0;0;5;0;0;2;0;1;0;0;196;20;0;0;24;52.5340132;13.4261908;3.831872089;17;17;19;19;19;16.5;0;0;7;6;0;0.270072993;3.702702703;37;137;0.07
PENNY;Mariendorfer Damm 153-157, 12107 Berlin;4;43;33;1;7;10;8;7;10;0;1;2;0;1;0;0;805;20;0;0;40;52.4379349;13.388881;8.75364522;15;15;15;15;15;15;0;0;8;1;0;0.120462046;8.301369863;73;606;0.48
EDEKA Yaras;Mariendorfer Damm 186, 12107 Berlin;4.3;28;23;2;7;8;4;2;5;0;1;2;0;1;0;0;655;15;0;0;2;52.4349811;13.3891996;9.083101231;15;15;15;15;15;15;0;0;0;0;0;0.069548872;14.37837838;37;532;0.31
EDEKA Prang;Mariendorfer Damm 81, 12109 Berlin;3.9;17;13;0;7;4;2;0;4;0;1;3;0;0;1;0;1204;20;0;0;81;52.4453899;13.3864959;7.913373739;14;14;14;14;14;14;0;0;62;34;3;0.183922046;5.437086093;151;821;0.2
EDEKA Gayermann;Marienfelder Allee 101, 12277 Berlin;4.1;16;11;0;3;5;0;3;5;0;1;2;0;1;0;0;628;15;0;0;26;52.4174803;13.3674618;11.01968907;14;14;14;14;14;14;0;0;7;0;0;0.128755365;7.766666667;60;466;0.19
EDEKA Schrader;Marienfelder Chaussee 143, 12349 Berlin;4;12;7;0;6;0;0;1;5;0;1;2;0;1;0;0;1290;20;0;0;88;52.4154282;13.4059072;11.38799471;15;15;15;15;15;15;0;0;21;4;1;0.159137577;6.283870968;155;974;0.13
PENNY;Marienfelder Chaussee 6, 12349 Berlin;3.9;9;4;0;1;3;0;0;5;0;1;2;0;1;0;0;723;15;0;0;53;52.4205929;13.4253795;11.13117407;15;15;15;15;15;15;0;0;14;6;1;0.16796875;5.953488372;86;512;0.1
EDEKA Nemitz-Pollmann;M‰rkische Allee 76, 16548 Glienicke/Nordbahn;4.2;3;0;0;0;0;0;0;3;0;1;2;0;1;0;0;508;20;0;0;28;52.6313669;13.3230005;13.33577866;14;14;14;14;14;14;0;0;4;0;0;0.102941176;9.714285714;42;408;0.04
EDEKA Kiezmarkt;Marksburgstraﬂe 14, 10318 Berlin;3.8;0;0;0;0;0;0;0;0;0;1;2;0;1;0;0;541;15;0;0;43;52.4873166;13.5183188;10.05917772;14;14;14;14;14;14;0;1;22;19;3;0.227272727;4.4;80;352;0
EDEKA Lindenberg;Markstraﬂe 32-34, 13409 Berlin;4;4;0;0;0;0;0;0;4;0;1;2;0;1;0;0;1915;20;0;0;139;52.560786;13.3658304;5.019736736;14;14;14;14;14;14;0;0;28;3;1;0.151791989;6.587962963;216;1423;0.05
EDEKA Markt 11;Markt 11, 13597 Berlin;3.4;5;0;0;0;0;0;0;5;0;0;2;0;1;0;0;672;15;0;0;86;52.5374073;13.2046788;11.95203147;15;15;15;15;15;15;0;0;51;36;12;0.51026393;1.959770115;174;341;0.06
EDEKA Martin-Luther-Str.;Martin-Luther-Str. 52-54, 10779 Berlin;3.7;14;7;0;2;3;2;0;7;0;0;2;0;1;0;0;359;15;0;0;29;52.491885;13.344768;3.51460617;15;15;15;15;15;15;0;0;25;20;5;0.280373832;3.566666667;60;214;0.16
REWE Markt;Marzahner Promenade 1, 12679 Berlin;4.1;6;0;0;0;0;0;0;6;0;1;3;0;0;1;0;1182;15;0;0;50;52.5443128;13.545279;11.76961613;12;12;12;12;12;12;0;1;7;1;0;0.101293103;9.872340426;94;928;0.08
EDEKA Weiﬂ;Massower Str. 5, 10315 Berlin;3.9;14;12;0;4;5;3;0;2;0;1;2;0;1;0;0;451;15;0;0;37;52.5075962;13.5130507;9.220305385;15;15;15;15;15;15;0;0;4;1;0;0.198170732;5.046153846;65;328;0.16
EDEKA Treugut;Maybachufer 36-38, 12047 Berlin;4.1;7;1;0;0;1;0;0;6;0;1;2;0;1;0;0;344;15;0;0;24;52.4919088;13.4325786;4.602537864;15;15;15;15;15;15;0;0;6;0;0;0.132352941;7.555555556;36;272;0.08
REWE Markt;Mehrower Allee 20, 12687 Berlin;3.9;14;11;0;3;3;3;2;3;0;1;2;0;1;0;0;727;15;0;0;64;52.5558126;13.5584871;13.00828651;15;15;15;15;15;15;0;1;4;2;1;0.184060721;5.432989691;97;527;0.16
Lidl;Mˆllendorffstraﬂe 75A, 10367 Berlin;4.2;22;12;0;4;4;2;2;10;0;1;2;0;1;0;0;1326;20;0;0;45;52.5225856;13.4776031;6.803237034;15;15;15;15;15;15;0;0;23;1;0;0.081651376;12.24719101;89;1090;0.24
Netto Marken-Discount;Mollstraﬂe 19, 10249 Berlin;4;7;5;0;0;3;2;0;2;0;0;2;0;1;0;0;518;15;0;0;25;52.5235236;13.4262963;3.388929248;14;14;14;14;14;14;0;0;19;3;1;0.127320955;7.854166667;48;377;0.08
EDEKA Ehrke;M¸ggelschlˆﬂchenweg 42, 12559 Berlin;3.5;17;11;0;2;4;3;2;6;0;1;2;0;1;0;0;329;20;0;0;44;52.440007;13.6006819;17.3388967;14;14;14;14;14;14;0;1;26;24;1;0.385416667;2.594594595;74;192;0.2
Barakat Supermarkt;M¸llerstraﬂe 160, 13353 Berlin;4.3;3;0;0;0;0;0;0;3;0;0;4;0;0;0;1;25;10;0;0;1;52.5441306;13.3626369;3.264432233;12;12;12;12;12;12;0;0;1;0;0;0.1;10;2;20;0.04
PENNY;M¸llerstraﬂe 40, 13353 Berlin;3.8;32;22;5;7;4;4;2;10;0;0;2;0;1;0;0;443;20;0;0;27;52.5500878;13.3532818;4.111305081;15;15;15;15;15;15;0;0;7;6;1;0.202797203;4.931034483;58;286;0.36
EDEKA Wsas;Nahariyastraﬂe 38, 12309 Berlin;3.3;13;8;1;4;3;0;0;5;0;0;3;0;0;1;0;347;15;0;0;63;52.393011;13.4204576;14.02484281;12;12;12;12;12;12;0;0;33;26;3;0.674698795;1.482142857;112;166;0.18
REWE Markt;Neue Grottkauer Str. 9, 12619 Berlin;4;23;13;0;3;4;3;3;10;0;1;2;0;1;0;0;1085;20;0;0;77;52.529414;13.594044;14.72590727;15;15;15;15;15;15;0;0;59;7;0;0.153846154;6.5;124;806;0.26
EDEKA McLenachan;Neue Kantstraﬂe 29-30, 14057 Berlin;3.8;26;17;0;7;7;1;2;9;0;0;2;0;1;0;0;954;15;0;0;106;52.5065812;13.2930516;5.83578659;15;15;15;15;15;15;0;0;10;8;1;0.257648953;3.88125;160;621;0.29
ALDI Nord;Neumannstraﬂe 13, 13189 Berlin;4.2;9;4;0;2;0;1;1;5;0;1;2;0;1;0;0;287;10;0;0;8;52.5609378;13.4225496;5.825702782;13;13;13;13;13;13;0;1;3;0;0;0.072727273;13.75;16;220;0.12
REWE Markt;Neumannstraﬂe 13, 13189 Berlin;4.1;6;3;0;0;1;2;0;3;0;1;3;0;0;1;0;405;15;0;0;23;52.5614177;13.4227136;5.877102535;13;13;13;13;13;13;0;1;5;0;0;0.126182965;7.925;40;317;0.08
EDEKA Kiezmarkt;Neumannstraﬂe 70, 13189 Berlin;4.3;12;8;0;2;2;2;2;4;0;1;2;0;1;0;0;721;20;0;0;31;52.5644517;13.420727;6.102998953;13;13;13;15;15;15;0;0;20;1;0;0.089552239;11.16666667;54;603;0.14
REWE Markt;Nonnendammallee 120, 13629 Berlin;3.9;0;0;0;0;0;0;0;0;0;1;2;0;1;0;0;682;10;0;0;43;52.5400718;13.249119;9.102241759;15;15;15;15;15;15;0;0;16;9;2;0.142857143;7;69;483;0
REWE Markt;Oberfeldstraﬂe 138, 12683 Berlin;4.1;11;5;0;2;0;0;3;6;0;1;2;0;1;0;0;828;20;0;0;43;52.5247265;13.5582407;12.26486126;17;17;19;19;19;16.5;0;0;3;0;0;0.124809741;8.012195122;82;657;0.1
REWE Markt;Oberspreestraﬂe 145, 12555 Berlin;3.7;20;11;1;3;3;2;2;9;0;1;1;1;0;0;0;1106;15;0;0;120;52.4460563;13.564055;14.85648539;18;18;20;20;20;17.5;0;0;4;3;1;0.261669024;3.821621622;185;707;0.18
REWE Markt;Oberweiﬂbacher Str. 2-4, 12687 Berlin;4.2;22;13;0;2;3;3;5;9;0;1;1;1;0;0;0;979;15;0;0;50;52.5565662;13.5714588;13.8648107;16;16;16;16;16;16;0;0;7;1;0;0.095238095;10.5;76;798;0.23
EDEKA Berlin Obstallee;Obstallee 28-30, 13593 Berlin;3.7;11;4;0;1;2;1;0;7;0;0;2;0;1;0;0;396;15;0;0;37;52.5222339;13.1635612;14.52061563;13;13;13;13;13;11;0;1;29;25;4;0.32173913;3.108108108;74;230;0.15
EDEKA Ostseestraﬂe;Ostseestraﬂe 107-109, 10409 Berlin;3.9;4;0;0;0;0;0;0;4;0;1;2;0;1;0;0;358;20;0;0;33;52.5464314;13.4430198;5.552766893;14;14;14;14;14;14;0;0;12;4;1;0.18490566;5.408163265;49;265;0.05
REWE Markt;Ostseestraﬂe 23, 10409 Berlin;4;10;2;0;0;1;0;1;8;0;1;1;1;0;0;0;1254;20;0;0;88;52.5508563;13.4323921;5.341632538;16;16;16;16;16;16;0;0;59;8;2;0.126518219;7.904;125;988;0.1
REWE Markt;Otto-Suhr-Allee 141, 10585 Berlin;4;7;2;0;0;0;0;2;5;0;0;1;1;0;0;0;439;15;0;0;25;52.5189947;13.3007676;5.220444588;16;16;16;16;16;16;0;0;13;3;0;0.140625;7.111111111;45;320;0.07
REWE Markt;Otto-Suhr-Allee 80-82, 10585 Berlin;4;30;27;3;9;7;3;5;3;0;0;2;0;1;0;0;886;15;0;0;49;52.5166907;13.3098071;4.599677449;15;15;15;15;15;15;0;0;43;4;1;0.141524106;7.065934066;91;643;0.33
REWE Markt;Pablo-Neruda-Straﬂe 2, 12559 Berlin;4.1;18;13;1;3;3;0;6;5;0;1;1;1;0;0;0;956;20;0;0;54;52.4416402;13.5875149;16.47361692;16;16;16;16;16;16;0;1;18;2;0;0.110962567;9.012048193;83;748;0.19
REWE Markt;Pankstraﬂe 39, 13357 Berlin;4.5;7;2;0;0;2;0;0;5;0;1;2;0;1;0;0;33;20;0;0;2;52.5494579;13.3777373;3.693904219;15;15;15;15;15;15;0;1;0;0;0;0.103448276;9.666666667;3;29;0.08
EDEKA Vaupel;Pannierstraﬂe 37-38, 12047 Berlin;3.8;5;2;0;0;2;0;0;3;0;0;3;0;0;1;0;209;15;0;0;17;52.4903951;13.4341888;4.790581834;12;12;12;12;12;12;0;0;9;8;1;0.207142857;4.827586207;29;140;0.07
REWE Markt;Pappelallee 47, 10437 Berlin;3.8;10;2;1;1;0;0;0;8;0;0;2;0;1;0;0;446;20;0;0;48;52.5476579;13.4190964;4.479011581;15;15;15;15;15;15;0;0;22;19;0;0.281553398;3.551724138;87;309;0.11
REWE Markt;Pasewalker Str. 115, 13127 Berlin;4.3;14;4;0;2;0;0;2;10;0;1;1;1;0;0;0;881;20;0;0;34;52.584259;13.4299601;8.353770441;16;16;16;16;16;16;0;0;16;1;0;0.083102493;12.03333333;60;722;0.15
REWE Markt;Pasteurstraﬂe 19, 10407 Berlin;3.5;8;1;0;1;0;0;0;7;0;1;2;0;1;0;0;776;20;0;0;172;52.53344;13.43432;4.284244755;14.8;14.8;14.8;14.8;14.8;14.8;0;0;56;41;2;0.436681223;2.29;200;458;0.09
REWE Markt;Pichelsdorfer Str. 110, 13595 Berlin;3.8;29;20;3;5;3;3;6;9;0;0;1;1;0;0;0;664;15;0;0;57;52.5246832;13.1977523;12.22498921;16;16;16;16;16;16;0;0;12;10;1;0.251152074;3.981651376;109;434;0.3
EDEKA Schlender;Pistoriusstraﬂe 112-114, 13086 Berlin;4.1;15;12;0;2;4;2;4;3;0;0;2;0;1;0;0;886;20;0;0;55;52.5533357;13.4460359;6.199141185;14;14;14;14;14;14;0;0;7;1;0;0.113342898;8.82278481;79;697;0.18
EDEKA Potsdamer Chaussee;Potsdamer Ch 80, 14129 Berlin;4.1;15;7;0;0;0;0;7;8;0;1;2;0;1;0;0;928;25;0;0;71;52.4268684;13.2158798;14.81459406;15;15;15;15;15;15;0;0;37;3;0;0.155988858;6.410714286;112;718;0.17
REWE Markt;Potsdamer Str. 128, 10783 Berlin;4.1;7;3;0;1;2;0;0;4;0;1;2;0;1;0;0;1267;15;0;0;48;52.499139;13.3621897;2.178024769;15;15;15;15;15;15;0;0;19;2;0;0.103909465;9.623762376;101;972;0.08
REWE Markt;Prerower Pl. 1, 13051 Berlin;4.1;19;11;0;2;4;1;4;8;0;1;3;0;0;1;0;900;15;0;0;47;52.5646738;13.5065741;10.25450865;12;12;12;12;12;12;0;1;1;0;0;0.114492754;8.734177215;79;690;0.26
REWE Markt;Randowstraﬂe 3, 13057 Berlin;4.2;18;13;1;3;3;2;4;5;0;1;2;0;1;0;0;868;20;0;0;49;52.5670071;13.5277709;11.62404636;15;15;15;15;15;15;0;1;23;2;1;0.106891702;9.355263158;76;711;0.2
EDEKA Friedrich;Raoul-Wallenberg-Straﬂe 18, 12679 Berlin;4.1;27;21;0;7;6;3;5;6;0;1;2;0;1;0;0;1315;20;0;0;67;52.5488807;13.5525395;12.38318403;14;14;14;14;14;14;0;0;58;6;2;0.126570048;7.900763359;131;1035;0.32
REWE Markt;Rauchstraﬂe 56, 13587 Berlin;4.1;20;10;0;2;4;0;4;10;0;1;2;0;1;0;0;1297;15;0;0;84;52.5615469;13.2138665;12.18406504;15;15;15;15;15;15;0;0;25;2;0;0.128256513;7.796875;128;998;0.22
EDEKA Groben;Reichsstraﬂe 94, 14052 Berlin;3.8;20;11;0;4;6;0;1;9;0;1;2;0;1;0;0;394;15;0;0;40;52.5130139;13.2657016;7.596218212;15;15;15;15;15;15;0;0;18;15;3;0.248091603;4.030769231;65;262;0.22
EDEKA Pohl;Rheinsteinstraﬂe 4-12, 10318 Berlin;4;12;8;0;3;2;0;3;4;0;1;2;0;1;0;0;585;20;0;0;45;52.4828578;13.5275327;10.8135417;16;15;16;16;16;16;0;0;32;7;2;0.166281755;6.013888889;72;433;0.13
REWE Markt;Rheinstraﬂe 30, 12161 Berlin;4;20;10;0;3;2;2;3;10;0;0;1;1;0;0;0;628;15;0;0;44;52.4669985;13.3301111;6.363650609;16;16;16;16;16;16;0;0;26;5;2;0.174840085;5.719512195;82;469;0.21
EDEKA Reim;Rhinstraﬂe 17, 10315 Berlin;4;17;8;0;3;2;0;3;9;0;1;2;0;1;0;0;1786;15;0;0;120;52.51364;13.5177212;9.489851716;17;17;19;19;19;16.5;0;0;17;3;0;0.168881939;5.921296296;216;1279;0.16
REWE Markt;Ribnitzer Str. 26, 13051 Berlin;3.9;18;10;1;3;4;2;0;8;0;1;2;0;1;0;0;843;20;0;0;69;52.5696388;13.4947442;9.903226928;15;15;15;15;15;15;0;0;63;31;12;0.206779661;4.836065574;122;590;0.2
EDEKA Siegler;Richard-von-Weizs‰cker-Platz 1-2, 10827 Berlin;4;4;0;0;0;0;0;0;4;0;1;3;0;0;1;0;351;20;0;0;27;52.4858582;13.3569874;3.665477309;12;12;12;12;12;12;0;1;5;0;0;0.167286245;5.977777778;45;269;0.06
EDEKA Schaaf;Riesaer Str. 102, 12627 Berlin;3.9;28;22;4;4;4;3;7;6;0;1;2;0;1;0;0;1159;20;0;0;97;52.5302409;13.6208334;16.54065262;14;14;14;14;14;14;0;0;52;18;0;0.192771084;5.1875;160;830;0.33
ALDI Nord;Ritterfelddamm 200, 14089 Berlin;4.3;5;1;0;0;0;0;1;4;0;1;2;0;1;0;0;502;20;0;0;21;52.4707808;13.1248509;17.8702472;14;14;14;14;14;14;0;0;18;1;0;0.08254717;12.11428571;35;424;0.06
EDEKA Lenkeit;Rixdorfer Str. 67-69, 12109 Berlin;4.2;8;1;0;0;0;0;1;7;0;1;2;0;1;0;0;1189;20;0;0;50;52.4479812;13.4046596;7.818983503;15;15;15;15;15;15;0;0;25;2;0;0.085774059;11.65853659;82;956;0.09
EDEKA Rosenthaler Straﬂe;Rosenthaler Str. 43-45, 10178 Berlin;3.7;17;10;1;3;2;2;2;7;0;1;3;0;0;1;0;235;15;0;0;27;52.5240269;13.4029993;1.918438048;14;14;14;14;14;14;0;0;5;4;0;0.270833333;3.692307692;39;144;0.2
REWE Markt;Rosenthaler Weg 74, 13127 Berlin;3.8;10;1;0;0;0;0;1;9;0;1;2;0;1;0;0;692;20;0;0;57;52.6070601;13.428984;10.68534853;15;15;15;15;15;15;0;0;3;3;0;0.226012793;4.424528302;106;469;0.11
EDEKA Friedrich;Rotkamp 2-6, 13053 Berlin;4.6;19;16;0;4;5;4;3;3;0;1;2;0;1;0;0;122;15;0;0;1;52.5610739;13.5090459;10.1956959;14;14;14;14;14;14;0;0;0;0;0;0.018018018;55.5;2;111;0.23
EDEKA Teschke;Rudower Str. 21, 12351 Berlin;3.8;18;12;0;5;1;0;6;6;0;1;3;0;0;1;0;1019;20;0;0;109;52.4417994;13.4589843;9.955005773;14;14;14;14;14;14;0;0;86;51;18;0.220196353;4.541401274;157;713;0.21
REWE Markt;Rummelsburger Str. 16, 12459 Berlin;4.2;16;7;0;2;2;0;3;9;0;1;1;1;0;0;0;1506;20;0;0;65;52.4693917;13.5126375;10.52990507;16;16;16;16;16;16;0;0;25;2;0;0.080450523;12.43;100;1243;0.17
EDEKA Tozlu;Ruppiner Ch 301, 13503 Berlin;4.2;4;0;0;0;0;0;0;4;0;1;2;0;1;0;0;485;20;0;0;21;52.6183888;13.2390643;14.73817523;15;15;15;15;15;15;0;0;13;1;0;0.096202532;10.39473684;38;395;0.04
REWE Markt;Rustweg 1, 13587 Berlin;4.3;16;6;0;0;2;0;4;10;0;1;2;0;1;0;0;952;20;0;0;37;52.5758891;13.2133842;12.9529072;16;16;16;16;16;16;0;0;6;0;0;0.079800499;12.53125;64;802;0.17
REWE Markt;Sakrower Landstraﬂe 1A, 14089 Berlin;4;17;13;0;4;4;4;1;4;0;1;2;0;1;0;0;466;15;0;0;29;52.4529445;13.142965;17.40484542;15;15;15;15;15;15;0;0;26;5;2;0.12797619;7.813953488;43;336;0.19
EDEKA Haase;Salzbrunner Str. 18-20, 14193 Berlin;3.9;12;5;0;1;2;1;1;7;0;0;2;0;1;0;0;340;15;0;0;25;52.4891659;13.294287;6.407690343;14;14;14;14;14;14;0;0;3;2;0;0.2;5;47;235;0.14
EDEKA Schaaf;Schillingstraﬂe 2, 10179 Berlin;3.6;14;10;0;2;5;0;3;4;0;0;2;0;1;0;0;170;15;0;0;28;52.5173299;13.4207074;2.91546395;15;15;15;15;15;15;0;0;18;16;2;0.41509434;2.409090909;44;106;0.16
REWE Markt;Schivelbeiner Str. 38, 10439 Berlin;4.2;15;4;0;1;2;0;1;11;0;1;2;0;1;0;0;1726;20;0;0;100;52.5507225;13.4100307;4.415488567;16.5;16.5;16.5;16.5;16.5;16.5;0;0;83;7;1;0.106082037;9.426666667;150;1414;0.15
REWE Markt;Schlangenbader Str. 25, 14197 Berlin;4;13;5;0;0;0;0;5;8;0;1;1;1;0;0;0;805;20;0;0;53;52.4727627;13.307828;6.774261026;16;16;16;16;16;16;0;0;46;7;1;0.157264957;6.358695652;92;585;0.14
EDEKA Center No. 1;Schloﬂstraﬂe 1, 12163 Berlin;4.4;7;0;0;0;0;0;0;7;0;1;2;0;1;0;0;319;15;0;0;22;52.4649;13.3261482;6.702174499;15;15;15;15;15;15;0;1;17;1;0;0.110701107;9.033333333;30;271;0.08
EDEKA Schloﬂstraﬂe;Schloﬂstraﬂe 10, 12163 Berlin;4.1;5;0;0;0;0;0;0;5;0;1;4;0;0;0;1;11233;10;0;0;364;52.4627274;13.3246775;6.960693517;10;10;10;10;10;10;0;1;339;16;4;0.101215052;9.87995338;858;8477;0.08
EDEKA Heppner;Schloﬂstraﬂe 98, 12163 Berlin;3.9;14;9;0;4;2;1;2;5;0;1;3;0;0;1;0;627;15;0;0;25;52.4589683;13.3234641;7.36303844;13;13;13;13;13;13;0;0;8;3;1;0.143203883;6.983050847;59;412;0.18
EDEKA Center Untergehrer;Schnellerstraﬂe 131, 12439 Berlin;4.5;5;0;0;0;0;0;0;5;0;1;2;0;1;0;0;3076;30;0;0;96;52.4576649;13.5097925;11.07883502;15;15;15;15;15;15;0;0;88;2;1;0.053571429;18.66666667;147;2744;0.06
REWE Markt;Schnellerstraﬂe 74, 12439 Berlin;4.3;9;0;0;0;0;0;0;9;0;1;1;1;0;0;0;1261;20;0;0;45;52.4514391;13.5296408;12.57711822;15.5;15.5;15.5;15.5;15.5;15.5;0;0;3;0;0;0.072368421;13.81818182;77;1064;0.1
REWE Markt;Schˆnefelder Ch 1, 12524 Berlin;4;6;1;0;0;1;0;0;5;0;1;1;1;0;0;0;908;20;0;0;64;52.4180452;13.5365909;15.35185322;16;16;16;16;16;16;0;0;5;1;0;0.144560358;6.917525773;97;671;0.06
REWE Markt;Schˆnhauser Allee 10-11, 10119 Berlin;4.2;13;5;1;4;0;0;0;8;0;1;2;0;1;0;0;590;20;0;0;29;52.5303884;13.4117549;2.790587283;16.5;16.5;16.5;16.5;16.5;16.5;0;0;16;1;0;0.098765432;10.125;48;486;0.13
REWE Markt;Schˆnhauser Allee 130, 10437 Berlin;3.9;18;10;3;0;3;2;2;8;0;0;1;1;0;0;0;637;15;0;0;47;52.5453987;13.412384;4.003285912;17.5;17.5;17.5;17.5;17.5;17.5;0;0;4;2;0;0.192307692;5.2;85;442;0.17
REWE Markt;Schˆnhauser Allee 36-39, 10435 Berlin;4;15;6;0;3;0;1;2;9;0;1;2;0;1;0;0;1433;20;0;0;84;52.5388194;13.4128101;3.457016937;17;17;19;19;19;16;0;0;24;4;1;0.140610546;7.111842105;152;1081;0.14
EDEKA Schˆnhauser Allee;Schˆnhauser Allee 80, 10439 Berlin;3.8;14;8;0;3;4;0;1;6;0;1;4;0;0;0;1;738;10;0;0;62;52.5493742;13.4163307;4.518612312;13;13;13;13;13;13;0;1;13;11;2;0.212851406;4.698113208;106;498;0.18
REWE Markt;Schˆnwalder Str. 32-33, 13585 Berlin;3.9;32;22;2;4;5;3;8;10;0;0;1;1;0;0;0;921;15;0;0;67;52.5488918;13.2010292;12.50267555;16;16;16;16;17;17;0;0;47;17;5;0.194533762;5.140495868;121;622;0.33
REWE Markt;Siemensdamm 43-44, 13629 Berlin;4;14;4;0;2;2;0;0;10;0;1;1;1;0;0;0;583;5;0;0;26;52.536555;13.2745523;7.341791473;16;16;16;16;16;16;0;1;2;0;0;0.139479905;7.169491525;59;423;0.15
EDEKA Siemensstraﬂe;Siemensstraﬂe 21-23, 12247 Berlin;4.2;5;0;0;0;0;0;0;5;0;1;2;0;1;0;0;1548;20;0;0;92;52.4440366;13.3358115;8.528375391;17;17;19;19;19;16;0;0;12;1;0;0.110501567;9.04964539;141;1276;0.05
EDEKA Center Amthor;Siriusstraﬂe 1, 12524 Berlin;4.3;15;10;0;2;2;2;4;5;0;1;2;0;1;0;0;1686;25;0;0;71;52.4023983;13.5241883;16.10658686;15;15;15;15;15;15;0;0;14;0;0;0.083100559;12.03361345;119;1432;0.17
REWE Markt;Sˆmmeringstraﬂe 24-26, 10589 Berlin;4.3;11;1;0;0;0;0;1;10;0;0;1;1;0;0;0;1093;20;0;0;38;52.5234858;13.3067138;4.875155086;17.5;17.5;17.5;17.5;17.5;17.5;0;0;16;0;0;0.069892473;14.30769231;65;930;0.11
EDEKA G‰th;Steglitzer Damm 22, 12169 Berlin;3.6;15;12;0;4;5;1;2;3;0;1;2;0;1;0;0;531;20;0;0;71;52.4506789;13.339878;7.739298753;13;13;13;13;13;13;0;0;43;35;2;0.338414634;2.954954955;111;328;0.19
REWE Markt;Sterndamm 140, 12487 Berlin;2.9;20;18;3;3;5;3;4;2;0;1;2;0;1;0;0;204;15;0;0;67;52.4397583;13.4992682;11.85268167;15;15;15;15;15;15;0;0;56;41;3;0.977272727;1.023255814;86;88;0.22
REWE Markt;Sterndamm 31/33/35, 12487 Berlin;3.7;28;19;3;3;4;3;6;9;0;1;1;1;0;0;0;855;15;0;0;94;52.4508454;13.5087902;11.49012634;16;16;16;16;16;16;0;0;2;1;0;0.319311663;3.131736527;167;523;0.29
EDEKA Laurman;Steubenpl. 3-5, 14050 Berlin;3.6;23;15;4;3;4;2;2;8;0;0;2;0;1;0;0;251;15;0;0;38;52.5169254;13.2614989;7.872230811;15;15;15;15;15;15;0;0;6;5;1;0.359477124;2.781818182;55;153;0.26
EDEKA Straﬂburger Straﬂe;Straﬂburger Str. 9a-c, 10405 Berlin;4.2;22;18;3;3;7;3;2;4;0;1;3;0;0;1;0;485;20;0;0;24;52.52922;13.4135295;2.822166019;14;14;14;14;14;14;0;0;16;1;0;0.110824742;9.023255814;43;388;0.26
EDEKA Center Berlin ñ Streitstraﬂe;Streitstraﬂe 18, 13587 Berlin;4.1;18;13;0;4;4;3;2;5;0;1;2;0;1;0;0;2558;30;0;0;198;52.5590586;13.210833;12.26141939;15;15;15;15;15;15;0;0;57;6;1;0.161832061;6.179245283;318;1965;0.2
REWE Markt;S¸dwestkorso 36, 14197 Berlin;3.7;19;12;2;3;2;2;3;7;0;1;2;0;1;0;0;527;15;0;0;50;52.4685714;13.3117549;6.941188915;14;14;14;14;14;14;0;0;30;24;3;0.228915663;4.368421053;76;332;0.23
EDEKA Colombino;Sundgauer Str. 109, 14167 Berlin;3.9;20;12;0;4;4;3;1;8;0;1;2;0;1;0;0;639;15;0;0;63;52.4357931;13.2743105;11.37603688;15;15;15;15;15;15;0;0;18;9;1;0.191082803;5.233333333;90;471;0.22
EDEKA Tauernallee;Tauernallee 30-58, 12107 Berlin;3.9;6;3;0;2;0;0;1;3;0;1;2;0;1;0;0;338;15;0;0;25;52.4257678;13.401361;10.20213147;14;14;14;14;14;14;0;0;3;1;0;0.186440678;5.363636364;44;236;0.07
EDEKA Tempelhofer Damm;Tempelhofer Damm 198, 12099 Berlin;4.1;12;5;0;0;1;2;2;7;0;1;2;0;1;0;0;446;20;0;0;23;52.4586257;13.3832942;6.428668762;15;15;15;15;15;15;0;1;14;1;0;0.106936416;9.351351351;37;346;0.13
EDEKA Center Tempelhof;Tempelhofer Damm 227, 12099 Berlin;4.2;11;3;0;1;1;1;0;8;0;0;3;0;0;1;0;1329;15;0;0;60;52.4560148;13.3869808;6.737546718;13;13;13;13;13;13;0;1;7;0;0;0.099630996;10.03703704;108;1084;0.14
REWE Markt;Tempelhofer Weg 11, 12347 Berlin;4.3;23;13;0;5;3;1;4;10;0;1;2;0;1;0;0;871;15;0;0;37;52.4585139;13.4249056;7.182039872;15;15;15;15;15;15;0;0;27;1;0;0.066126856;15.12244898;49;741;0.26
EDEKA Banasik;Templiner Str. 13, 10119 Berlin;3.9;14;11;0;6;5;0;0;3;0;1;2;0;1;0;0;357;15;0;0;36;52.5319968;13.4077704;2.685123694;16;16;16;16;16;16;0;0;28;8;3;0.243137255;4.112903226;62;255;0.15
REWE Markt;Theodor-Heuss-Platz 6, 14052 Berlin;3.9;13;6;1;3;2;0;0;7;0;0;1;1;0;0;0;1078;20;0;0;73;52.510212;13.2725914;7.152933712;16;16;16;16;16;16;0;0;28;10;3;0.169859515;5.887218045;133;783;0.14
REWE Markt;Thiemannstraﬂe 9-11, 12059 Berlin;3.8;19;9;0;6;3;0;0;10;0;1;2;0;1;0;0;681;20;0;0;71;52.4786409;13.451021;6.499209796;15;15;15;15;15;15;0;0;8;6;1;0.261904762;3.818181818;121;462;0.21
REWE Markt;Tˆpchiner Weg 189-193, 12309 Berlin;3.9;5;0;0;0;0;0;0;5;0;1;1;1;0;0;0;481;20;0;0;31;52.4017843;13.413169;12.9700844;16;16;16;16;16;16;0;0;15;7;1;0.195906433;5.104477612;67;342;0.05
EDEKA Trabener Straﬂe;Trabener Str. 2, 14193 Berlin;4;13;9;1;4;4;0;0;4;0;1;2;0;1;0;0;269;15;0;0;9;52.4876659;13.2647136;8.292607781;14;14;14;14;14;14;0;0;8;1;0;0.14516129;6.888888889;27;186;0.16
EDEKA Viktoria-Luise-Platz;Viktoria-Luise-Platz 10, 10777 Berlin;3.7;10;8;2;2;0;2;2;2;0;0;2;0;1;0;0;297;15;0;0;27;52.4952543;13.3415495;3.387771101;14;14;14;14;14;14;0;0;1;1;0;0.269662921;3.708333333;48;178;0.12
REWE Markt;Vincent-van-Gogh-Straﬂe 18A, 13057 Berlin;4.1;27;17;2;3;4;3;5;10;0;1;2;0;1;0;0;676;15;0;0;42;52.565111;13.523567;11.27301251;15;15;15;15;15;15;0;0;20;1;0;0.131931166;7.579710145;69;523;0.3
REWE Markt;Volkradstraﬂe 32, 10319 Berlin;4;0;0;0;0;0;0;0;0;0;1;2;0;1;0;0;641;20;0;0;44;52.4998938;13.5076713;8.992705405;15;15;15;15;15;15;0;0;22;3;0;0.145833333;6.857142857;70;480;0
REWE Markt;Walther-Schreiber-Platz 1, 12161 Berlin;4.1;12;5;0;2;0;1;2;7;0;1;3;0;0;1;0;568;10;0;0;20;52.465898;13.3277331;6.551428736;13;13;13;13;13;13;0;1;16;2;1;0.096703297;10.34090909;44;455;0.15
EDEKA Bahnhof Lichtenberg;Weitlingstraﬂe 22, 10317 Berlin;3.9;0;0;0;0;0;0;0;0;0;1;1;1;0;0;0;2041;25;0;1;159;52.5094434;13.4971396;8.127084853;16;16;16;16;16;14;14;0;142;50;14;0.20935412;4.776595745;282;1347;0
REWE Markt;Weitlingstraﬂe 59-60, 10317 Berlin;4.3;28;18;2;6;3;3;4;10;0;1;1;1;0;0;0;1938;20;0;0;101;52.5053341;13.4961429;8.116180413;17.5;17.5;17.5;17.5;17.5;17.5;0;0;53;3;0;0.088915956;11.24657534;146;1642;0.27
EDEKA Gˆrner;Wendenschloﬂstraﬂe 324, 12557 Berlin;3.8;18;17;0;5;6;3;3;1;0;1;2;0;1;0;0;378;15;0;0;44;52.4283526;13.5846529;17.10915874;15;15;15;15;15;15;0;0;2;1;0;0.255905512;3.907692308;65;254;0.2
REWE Markt;Wendenschloﬂstraﬂe 354-358, 12557 Berlin;4.2;6;2;0;0;2;0;0;4;0;1;1;1;0;0;0;507;20;0;0;28;52.4252183;13.5846495;17.31133902;16;16;16;16;16;16;0;0;28;2;1;0.108695652;9.2;45;414;0.06
REWE Markt;Wildh¸terweg 42-46, 12353 Berlin;4.1;10;5;0;0;0;0;5;5;0;1;2;0;1;0;0;858;20;0;0;60;52.4220539;13.4488164;11.5441631;15;15;15;15;15;15;0;0;55;5;1;0.125925926;7.941176471;85;675;0.11
REWE Markt;Wollankstraﬂe 16, 13187 Berlin;4;16;7;0;0;3;0;4;9;0;1;2;0;1;0;0;1242;20;0;0;92;52.5663549;13.3954231;5.702482246;15;15;15;15;15;15;0;0;12;1;0;0.15625;6.4;145;928;0.18
REWE Markt;Wuhlestraﬂe 31, 12683 Berlin;4.2;0;0;0;0;0;0;0;0;0;1;1;1;0;0;0;1157;20;0;0;56;52.5283264;13.5687854;13.01178646;16;16;16;16;16;16;0;0;11;1;0;0.10021322;9.978723404;94;938;0
EDEKA Boe;Zeltinger Pl. 8, 13465 Berlin;3.7;4;1;0;0;0;0;1;3;0;1;3;0;0;1;0;198;20;0;0;25;52.6329379;13.2906779;14.25906049;12;12;12;12;12;12;0;0;24;20;3;0.282442748;3.540540541;37;131;0.06
REWE Markt;Zepernicker Str. 10, 13125 Berlin;4.2;7;3;0;0;0;0;3;4;0;1;2;0;1;0;0;709;25;0;0;26;52.6407648;13.5154587;16.69979302;15;15;15;15;15;15;0;0;4;0;0;0.097972973;10.20689655;58;592;0.08
